CODIGO,ZV-VP,DISTRITO,DIRECCION,COMP-DIR,X_ETRS89,Y_ETRS89,SISTEMA DE COORDENADAS,ESTADO,OBSERVACIONES,FECHA,LONGITUD,LATITUD,id_OSM,lat_OSM,lon_OSM,coord_OSM,name_OSM,score_OSM,coord
FUE_06-17_0000000071,ZV,VILLAVERDE,INT HUESPED DEL SEVILLANO DÑA FRANCISQUITA,,440666.7395,4467541.098,ETRS89 / UTM  Zona 30N,EN SERVICIO,,3-nov.-17,-3.6987395,40.3563231,3371812386,40.3563693,-3.6987094,"(40.356369299999997, -3.6987093999999998)",,5.737111602252679,"('40.3563231', '-3.6987395')"
FUE_06-17_0000000073,ZV,VILLAVERDE,INTBL. SOTO DEL PARRAL- HUESPED SEVILLANO,,440748.1625,4467576.455,ETRS89 / UTM  Zona 30N,EN SERVICIO,,3-nov.-17,-3.697784,40.3566474,3370152669,40.3564846,-3.6978708,"(40.356484600000002, -3.6978708)",,19.54511132480214,"('40.3566474', '-3.697784')"
FUE_05-18_0000000048,VP,VILLA DE VALLECAS,CAÑADA DEL SANTISIMO 30,,449168.9057,4468376.501,ETRS89 / UTM  Zona 30N,EN SERVICIO,,3-nov.-17,-3.5986857,40.3644106,4450589297,40.3645351,-3.5985856,"(40.364535099999998, -3.5985855999999998)",,16.23956390431308,"('40.3644106', '-3.5986857')"
FB_100010,ZV,PUENTE VALLECAS,PARQUE LINEAL DEL MANZANAREES,07 · MONTAÑA (C.01),441891.0,4469346.8,ETRS89 / UTM  Zona 30N,EN SERVICIO,,3-nov.-17,-3.6844875,40.3726761,1174617840,40.3727266,-3.6844722,"(40.3727266, -3.6844722000000001)",,5.764609463879646,"('40.3726761', '-3.6844875')"
FUE_06-12_0000000024,ZV,USERA,PARQUE DE PRADOLONGO,,439829.9992,4469568.607,ETRS89 / UTM  Zona 30N,EN SERVICIO,,3-nov.-17,-3.708784,40.3745281,3733455295,40.3745193,-3.7087134,"(40.374519300000003, -3.7087134000000002)",,6.061841427841117,"('40.3745281', '-3.708784')"
FB_100004,ZV,USERA,PARQUE LINEAL DEL MANZANAREES,08 · PRADERA-ESTANQUE (B.05),441665.2,4469579.1,ETRS89 / UTM  Zona 30N,EN SERVICIO,,3-nov.-17,-3.6871684,40.374753,4254265573,40.3748395,-3.6872113,"(40.3748395, -3.6872113)",,10.284897372165558,"('40.374753', '-3.6871684')"
FUE_05-13_0000000093,ZV,PUENTE VALLECAS,AVD DE ENTREVÍAS EN EL CRUCE CON RONDA DEL SUR,,443955.7671,4469789.003,ETRS89 / UTM  Zona 30N,EN SERVICIO,,3-nov.-17,-3.6602062,40.3768011,4127649539,40.3768608,-3.6601327,"(40.376860800000003, -3.6601327000000001)",,9.103738453953765,"('40.3768011', '-3.6602062')"
FUE_05-13_0000000063,ZV,PUENTE VALLECAS,PUERTO DE BALBARÁN JUNTO A PISTAS,,443876.5911,4469893.588,ETRS89 / UTM  Zona 30N,EN SERVICIO,,3-nov.-17,-3.6611481,40.377738,4236658383,40.3778041,-3.6611465,"(40.377804099999999, -3.6611465000000001)",,7.353305300291165,"('40.377738', '-3.6611481')"
FUE_05-13_0000000092,ZV,PUENTE VALLECAS,PARQUE LINEAL DE PALOMERAS EN EL CRUCE CON CALLE ARAGONESES,,445387.9364,4470126.469,ETRS89 / UTM  Zona 30N,EN SERVICIO,,3-nov.-17,-3.6433651,40.3799363,1295884051,40.3799794,-3.6435365,"(40.379979400000003, -3.6435365000000002)",,15.293195630990065,"('40.3799363', '-3.6433651')"
FUE_05-13_0000000073,ZV,PUENTE VALLECAS,PARQUE LINEAL DE PALOMERAS EN EL CRUCE CON CALLE LEONESES EN ANILLO CICLISTA,,445103.0512,4470186.518,ETRS89 / UTM  Zona 30N,EN SERVICIO,,3-nov.-17,-3.6467262,40.3804586,4116738893,40.3804416,-3.646788,"(40.380441599999997, -3.6467879999999999)",,5.56711423981931,"('40.3804586', '-3.6467262')"
FUE_03-10_0000000071,ZV,LATINA,JARDINES DE LA COL. CASILDA BUSTOS A,CALLE GENERAL ROMERO BASART CV AVDA GENERAL FANJUL,434126.92,4470400.31,ETRS89 / UTM  Zona 30N,EN SERVICIO,,3-nov.-17,-3.7760449,40.3815891,4332121748,40.3813012,-3.7756315,"(40.381301200000003, -3.7756314999999998)",,47.45760279944101,"('40.3815891', '-3.7760449')"
FUE_06-12_0000000052,ZV,USERA,PARQUE OLOF PALME,,439600.9711,4470502.347,ETRS89 / UTM  Zona 30N,EN SERVICIO,,3-nov.-17,-3.7115702,40.3829231,3733446724,40.3829853,-3.7118003,"(40.382985300000001, -3.7118003000000002)",,20.686268154739764,"('40.3829231', '-3.7115702')"
FUE_05-13_0000000138,VP,PUENTE VALLECAS,CONCEJO DE TEVERGA ENTRE Nº 10 Y 14,,442855.3243,4470754.424,ETRS89 / UTM  Zona 30N,EN SERVICIO,,3-nov.-17,-3.6732554,40.3854235,4339941543,40.3854136,-3.673315,"(40.3854136, -3.6733150000000001)",,5.168065587294111,"('40.3854235', '-3.6732554')"
FB_900063,ZV,USERA,MADRID RÍO,Z.27. - VADO - PARQUE LINEAL DEL MANZANARES,440907.9,4470838.6,ETRS89 / UTM  Zona 30N,EN SERVICIO,,3-nov.-17,-3.6962053,40.3860459,1284089807,40.3861099,-3.6963637,"(40.386109900000001, -3.6963637)",,15.190856791321934,"('40.3860459', '-3.6962053')"
FUE_05-13_0000000075,ZV,PUENTE VALLECAS,PARQUE LINEAL DE PALOMERAS EN EL CRUCE CON CALLE DE LOS ANDALUCES,,446193.7102,4471061.254,ETRS89 / UTM  Zona 30N,EN SERVICIO,,3-nov.-17,-3.6339521,40.3884099,1352780328,40.3887206,-3.634174,"(40.388720599999999, -3.6341739999999998)",,39.34018387031918,"('40.3884099', '-3.6339521')"
FUE_02-02_0000000037,ZV,ARGANZUELA,PARQUE ENRIQUE TIERNO GALVAN,EN LACOTA. C/TITÁN Nº 2,442126.2715,4471306.252,ETRS89 / UTM  Zona 30N,EN SERVICIO,,3-nov.-17,-3.6818943,40.3903443,3634101883,40.3903633,-3.6818381,"(40.390363299999997, -3.6818380999999998)",,5.2089435220297995,"('40.3903443', '-3.6818943')"
FUE_02-02_0000000039,ZV,ARGANZUELA,PARQUE ENRIQUE TIERNO GALVAN,,441803.0759,4471517.317,ETRS89 / UTM  Zona 30N,EN SERVICIO,,3-nov.-17,-3.6857213,40.3922232,4252391337,40.3923846,-3.6857146,"(40.3923846, -3.6857145999999998)",,17.960887714772873,"('40.3922232', '-3.6857213')"
FB_900056,ZV,ARGANZUELA,MADRID RÍO,Z.23. - ARGANZUELA - Pº DE LA CHOPERA,440535.5,4471544.0,ETRS89 / UTM  Zona 30N,EN SERVICIO,,3-nov.-17,-3.7006584,40.3923741,3697360446,40.392434,-3.7006744,"(40.392434000000002, -3.7006744)",,6.798925639676879,"('40.3923741', '-3.7006584')"
FB_900057,ZV,ARGANZUELA,MADRID RÍO,Z.23. - ARGANZUELA - Pº DE LA CHOPERA,440534.9,4471544.7,ETRS89 / UTM  Zona 30N,EN SERVICIO,,3-nov.-17,-3.7006655,40.3923803,3697360446,40.392434,-3.7006744,"(40.392434000000002, -3.7006744)",,6.020246247635914,"('40.3923803', '-3.7006655')"
FUE_02-02_0000000040,ZV,ARGANZUELA,PARQUE ENRIQUE TIERNO GALVAN,,442001.4877,4471569.775,ETRS89 / UTM  Zona 30N,EN SERVICIO,,3-nov.-17,-3.6833884,40.3927097,3634101894,40.3926772,-3.6834434,"(40.392677200000001, -3.6834433999999998)",,5.897038456742999,"('40.3927097', '-3.6833884')"
FUE_03-10_0000000036,ZV,LATINA,PARQUE DE ALUCHE - ARIAS NAVARRO,,435704.5576,4472123.541,ETRS89 / UTM  Zona 30N,EN SERVICIO,,3-nov.-17,-3.7576344,40.3972359,1340025575,40.3973861,-3.7577653,"(40.397386099999999, -3.7577653)",,20.050983111753144,"('40.3972359', '-3.7576344')"
FUE_06-11_0000000039,ZV,CARABANCHEL,PARQUE SAN ISIDRO,,437885.6001,4472208.4,ETRS89 / UTM  Zona 30N,EN SERVICIO,,3-nov.-17,-3.7319441,40.3981659,3516311431,40.3982623,-3.7320796,"(40.398262299999999, -3.7320796000000001)",,15.70669867196495,"('40.3981659', '-3.7319441')"
FUE_02-03_0000000024,ZV,RETIRO,PARQUE MARTIN LUTHER KING,,443176.2633,4472237.002,ETRS89 / UTM  Zona 30N,EN SERVICIO,,3-nov.-17,-3.6696067,40.3988013,3778875221,40.3987462,-3.6696685,"(40.398746199999998, -3.6696685000000002)",,8.059892999817384,"('40.3988013', '-3.6696067')"
FUE_06-11_0000000119,ZV,CARABANCHEL,PARQUE SAN ISIDRO,,438408.7521,4472295.082,ETRS89 / UTM  Zona 30N,EN SERVICIO,,3-nov.-17,-3.7257882,40.3989856,3657800032,40.3989127,-3.7256179,"(40.398912699999997, -3.7256179)",,16.547844533496075,"('40.3989856', '-3.7257882')"
FUE_05-13_0000000111,ZV,PUENTE VALLECAS,C/EL BOSCO CON RAMÓN PÉREZ DE AYALA  JUNTO A COLEGIO TAJAMAR,,444933.2972,4472260.057,ETRS89 / UTM  Zona 30N,EN SERVICIO,,3-nov.-17,-3.6489052,40.3991271,1258603112,40.3991895,-3.6490433,"(40.399189499999999, -3.6490433000000002)",,13.60167380478646,"('40.3991271', '-3.6489052')"
FB_900022,ZV,CARABANCHEL,MADRID RIO,Z.12. - SALON DE PINOS - PUENTE DE SAN ISIDRO,439102.7,4472337.3,ETRS89 / UTM  Zona 30N,EN SERVICIO,,3-nov.-17,-3.7176154,40.399417,2960394790,40.3994115,-3.7175535,"(40.399411499999999, -3.7175535000000002)",,5.278731573107229,"('40.399417', '-3.7176154')"
FUE_03-10_0000000016,ZV,LATINA,CUÑA VERDE LA LATINA,CALLE ALHAMBRA Nº 29,436864.5863,4472384.941,ETRS89 / UTM  Zona 30N,FUERA DE SERVICIO,DEFICIENCIA ESTRUCTURAL,3-nov.-17,-3.743992,40.3996794,2960394796,40.3996352,-3.7440121,"(40.399635199999999, -3.7440121)",,5.202659881668042,"('40.3996794', '-3.743992')"
FUE_03-10_0000000099,ZV,LATINA,CUÑA VERDE LA LATINA,C/SESEÑA 99. DENTRO DEL PARQUE. EN EL CARRIL BICI,435248.565,4472411.557,ETRS89 / UTM  Zona 30N,EN SERVICIO,,3-nov.-17,-3.7630364,40.3997952,4116738894,40.3998769,-3.7628733,"(40.399876900000002, -3.7628732999999999)",,16.535838946803317,"('40.3997952', '-3.7630364')"
FUE_03-10_0000000029,ZV,LATINA,CUÑA VERDE LA LATINA,CALLE CONCEJAL FRANCISCO JOSÉ JIMÉNEZ MARTÍN Nº132,436579.2398,4472429.004,ETRS89 / UTM  Zona 30N,EN SERVICIO,,3-nov.-17,-3.7473587,40.4000547,2960394820,40.4000875,-3.7471788,"(40.400087499999998, -3.7471787999999999)",,15.66869786272294,"('40.4000547', '-3.7473587')"
FUE_02-02_0000000009,ZV,ARGANZUELA,PZA. LUCA DE TENA,PZA  LUCA DE TENA N º2,441149.1029,4472614.311,ETRS89 / UTM  Zona 30N,EN SERVICIO,,3-nov.-17,-3.6935279,40.4020595,3519204115,40.4020093,-3.6935836,"(40.402009300000003, -3.6935836000000002)",,7.309851059692174,"('40.4020595', '-3.6935279')"
FUE_02-03_0000000011,ZV,RETIRO,PARQUE MARTIN LUTHER KING,C/ARREGUI Y ARUEJ  24,443306.1855,4472675.612,ETRS89 / UTM  Zona 30N,EN SERVICIO,,3-nov.-17,-3.6681148,40.4027614,3643291471,40.402811,-3.6682853,"(40.402811, -3.6682853)",,15.45916216288646,"('40.4027614', '-3.6681148')"
FUE_02-02_0000000012,ZV,ARGANZUELA,ANTIGUA ESTACION SUR,C/PALOS DE LA FRONTERA Nº 29 ,441049.3744,4472708.743,ETRS89 / UTM  Zona 30N,EN SERVICIO,,3-nov.-17,-3.6947118,40.4029032,3519204120,40.4027643,-3.6947126,"(40.402764300000001, -3.6947125999999999)",,15.449475455222867,"('40.4029032', '-3.6947118')"
FUE_02-03_0000000021,ZV,RETIRO,STA. SABINA - DR. ESQUERDO,C/SANTA SABINA Nº 6,443110.9647,4472923.757,ETRS89 / UTM  Zona 30N,EN SERVICIO,,3-nov.-17,-3.6704375,40.4049836,3100182024,40.4050503,-3.6703853,"(40.405050299999999, -3.6703853)",,8.636272733326454,"('40.4049836', '-3.6704375')"
FB_900015,ZV,LATINA,MADRID RIO,Z.09. - SALON DE PINOS - PUENTE DE SEGOVIA,438633.9,4472963.8,ETRS89 / UTM  Zona 30N,EN SERVICIO,,3-nov.-17,-3.7231997,40.4050263,1284090035,40.405036,-3.7230677,"(40.405036000000003, -3.7230677000000001)",,11.231904917155262,"('40.4050263', '-3.7231997')"
FUE_02-03_0000000042,VP,RETIRO,CAVANILLES Nº 46 PASAJE,CAVANILLES CV CALLE ABTAO,442748.431,4472936.672,ETRS89 / UTM  Zona 30N,EN SERVICIO,,3-nov.-17,-3.6747108,40.405075,2500990740,40.4050934,-3.6746206,"(40.405093399999998, -3.6746205999999999)",,7.909013620808647,"('40.405075', '-3.6747108')"
FUE_05-19_0000000092,ZV,VICÁLVARO,PARQUE DE LA CATALANA,,449872.6298,4473147.101,ETRS89 / UTM  Zona 30N,EN SERVICIO,,3-nov.-17,-3.5907731,40.4074302,3776287075,40.4073802,-3.5907803,"(40.407380199999999, -3.5907803)",,5.594644716151012,"('40.4074302', '-3.5907731')"
FUE_02-03_0000000013,ZV,RETIRO,JARDINES CONDE CARTAGENA - ABTAO,C/ CONDE DE CARTAGENA 16,442783.5549,4473222.373,ETRS89 / UTM  Zona 30N,EN SERVICIO,,3-nov.-17,-3.6743227,40.4076512,2494897762,40.4076385,-3.674152,"(40.407638499999997, -3.6741519999999999)",,14.526014908318999,"('40.4076512', '-3.6743227')"
FUE_03-10_0000000039,ZV,LATINA,Z.A. PARQUE CARAMUEL,CALLE CARAMUEL Nº 58,438101.7953,4473275.841,ETRS89 / UTM  Zona 30N,EN SERVICIO,,3-nov.-17,-3.7295004,40.4077979,1464142398,40.4078603,-3.7295561,"(40.407860300000003, -3.7295560999999999)",,8.39194644494688,"('40.4077979', '-3.7295004')"
FB_000019,ZV,RETIRO,JARDINES DEL BUEN RETIRO,A. 5 · ENCINAR,442420.89,4473318.61,ETRS89 / UTM  Zona 30N,FUERA DE SERVICIO,DEFICIENCIA ESTRUCTURAL,3-nov.-17,-3.6786052,40.4084932,2495409183,40.408512,-3.6787212,"(40.408512000000002, -3.6787212)",,10.04438329974004,"('40.4084932', '-3.6786052')"
FUE_05-14_0000000090,ZV,MORATALAZ,PARQUE  MARTALA CALLE MOLINA DE SEGURA,,445778.0333,4473303.398,ETRS89 / UTM  Zona 30N,EN SERVICIO,,3-nov.-17,-3.6390404,40.4085816,3005075470,40.4086259,-3.6390841,"(40.408625899999997, -3.6390840999999998)",,6.162490317222092,"('40.4085816', '-3.6390404')"
FB_000018,ZV,RETIRO,JARDINES DEL BUEN RETIRO,A. 17 · ÁREA CANINA,442256.56,4473420.36,ETRS89 / UTM  Zona 30N,EN SERVICIO,,3-nov.-17,-3.680551,40.4093984,4331358252,40.4093851,-3.6804806,"(40.409385100000002, -3.6804806000000001)",,6.143039678275963,"('40.4093984', '-3.680551')"
FUE_01-01_0000000012,ZV,CENTRO,PARQUE DE LA CORNISA,PARQUE DE LA CORNISA,439304.7466,4473492.437,ETRS89 / UTM  Zona 30N,EN SERVICIO,,3-nov.-17,-3.7153448,40.4098378,2494901875,40.4098572,-3.7152829,"(40.409857199999998, -3.7152829000000001)",,5.669066049469993,"('40.4098378', '-3.7153448')"
FUE_05-14_0000000094,ZV,MORATALAZ,CALLE DE LITUANIA,,443924.5914,4473459.024,ETRS89 / UTM  Zona 30N,EN SERVICIO,,3-nov.-17,-3.6608967,40.4098607,4127645075,40.4098195,-3.6609597,"(40.409819499999998, -3.6609596999999998)",,7.03329207994633,"('40.4098607', '-3.6608967')"
FUE_05-14_0000000067,ZV,MORATALAZ,PARQUE NORTE ENTRE CALLE FLORENCIO CANO Y CALLE FOBOS JUNTO A ZONA INFANTIL,,446274.1523,4473488.611,ETRS89 / UTM  Zona 30N,FUERA DE SERVICIO,VANDALISMO REITERADO,3-nov.-17,-3.6332092,40.4102822,3014927905,40.4102173,-3.6332127,"(40.410217299999999, -3.6332127000000001)",,7.224667238275581,"('40.4102822', '-3.6332092')"
FB_000016,ZV,RETIRO,JARDINES DEL BUEN RETIRO,A. 4 · LA ROSALEDA Y ENTORNO,442221.31,4473614.46,ETRS89 / UTM  Zona 30N,EN SERVICIO,,3-nov.-17,-3.6809841,40.4111445,3497669672,40.4111962,-3.6810031,"(40.411196199999999, -3.6810030999999999)",,5.971284953110143,"('40.4111445', '-3.6809841')"
FUE_05-14_0000000073,ZV,MORATALAZ,PARQUE CALLE JOSÉ BERGAMIN JUNTO A CUÑA DE ODONELL,,445730.3257,4473621.754,ETRS89 / UTM  Zona 30N,EN SERVICIO,,3-nov.-17,-3.6396297,40.4114464,1436712952,40.4114121,-3.639535,"(40.4114121, -3.639535)",,8.88118035122487,"('40.4114464', '-3.6396297')"
FUE_01-01_0000000009,ZV,CENTRO,PLAZA DE LOS CARROS,PLAZA DE LOS CARROS,439636.4322,4473693.572,ETRS89 / UTM  Zona 30N,EN SERVICIO,,3-nov.-17,-3.711455,40.4116737,988701242,40.4115794,-3.7113306,"(40.411579400000001, -3.7113306000000001)",,14.866161709141899,"('40.4116737', '-3.711455')"
FB_000017,ZV,MONCLOA-ARAVACA,CASA DE CAMPO ZONA FORESTAL,"FUENTE DE LA TORRETA DE INCENDIOS Nº2, CARRETERA",434282.2676,4473774.033,ETRS89 / UTM  Zona 30N,EN SERVICIO,,3-nov.-17,-3.7745631,40.4119931,3179585474,40.4119376,-3.7745309,"(40.411937600000002, -3.7745308999999998)",,6.748548760347499,"('40.4119931', '-3.7745631')"
FUE_05-14_0000000084,ZV,MORATALAZ,C/FUENTE CARRANTONA ENTRE LA CALLE CIUDAD ENCANTADA Y ACCESO A O´DONELL. ANILLO CICLISTA.,,446712.5462,4473677.688,ETRS89 / UTM  Zona 30N,EN SERVICIO,,3-nov.-17,-3.6280584,40.4120138,1048614525,40.4120609,-3.6281796,"(40.4120609, -3.6281796000000002)",,11.523794789530042,"('40.4120138', '-3.6280584')"
FB_000071,ZV,MORATALAZ,CUÑA VERDE DE O'DONELL Y FUENTE CARRANTONA, ,446184.6355,4473754.611,ETRS89 / UTM  Zona 30N,EN SERVICIO,,3-nov.-17,-3.6342866,40.4126728,3051156414,40.4126871,-3.6342143,"(40.412687099999999, -3.6342143)",,6.326091096688111,"('40.4126728', '-3.6342866')"
FUE_01-01_0000000017,ZV,CENTRO,PASEO DEL PRADO,PASEO DEL PRADO,441186.3865,4473797.868,ETRS89 / UTM  Zona 30N,EN SERVICIO,,3-nov.-17,-3.6931979,40.4127243,3657652927,40.4127548,-3.6932535,"(40.412754800000002, -3.6932535)",,5.803385480480372,"('40.4127243', '-3.6931979')"
FB_000018,ZV,MONCLOA-ARAVACA,CASA DE CAMPO ZONA FORESTAL,FUENTE DE LA GLORIETA DE LOS CAÑOS,435488.4424,4473918.96,ETRS89 / UTM  Zona 30N,EN SERVICIO,,3-nov.-17,-3.7603628,40.413393,1052390666,40.4134234,-3.7605708,"(40.413423399999999, -3.7605708)",,17.93632095914417,"('40.413393', '-3.7603628')"
FB_000020,ZV,RETIRO,JARDINES DEL BUEN RETIRO,A. 15 · CAMPO GRANDE,442187.9,4473865.75,ETRS89 / UTM  Zona 30N,EN SERVICIO,,3-nov.-17,-3.6814007,40.413406,2527420077,40.4133699,-3.6814686,"(40.413369899999999, -3.6814686000000001)",,7.013351612970923,"('40.413406', '-3.6814007')"
FB_000069,ZV,MORATALAZ,CUÑA VERDE DE O'DONELL Y FUENTE CARRANTONA, ,445686.2691,4473862.075,ETRS89 / UTM  Zona 30N,EN SERVICIO,,3-nov.-17,-3.6401694,40.4136085,4199356210,40.4136093,-3.6401034,"(40.413609299999997, -3.6401034000000001)",,5.589979588731291,"('40.4136085', '-3.6401694')"
FB_000011,ZV,RETIRO,JARDINES DEL BUEN RETIRO,A. 8 · BOSQUE DEL RECUERDO Y ENTORNO,441607.814,4473929.64,ETRS89 / UTM  Zona 30N,EN SERVICIO,,3-nov.-17,-3.6882433,40.413941,3117313482,40.4139852,-3.6883626,"(40.413985199999999, -3.6883626)",,11.23562173928227,"('40.413941', '-3.6882433')"
FUE_03-10_0000000040,ZV,LATINA,PZA. STA. CRISTINA - S. CRISPÍN,PLAZA SANTA CRISTINA Nº1,438297.8271,4473984.063,ETRS89 / UTM  Zona 30N,EN SERVICIO,,3-nov.-17,-3.727259,40.4141924,1474140979,40.4142047,-3.7271868,"(40.414204699999999, -3.7271868000000001)",,6.265457289471864,"('40.4141924', '-3.727259')"
FUE_01-01_0000000021,ZV,CENTRO,PARQUE DE ATENAS,PARQUE DE ATENAS,438867.16,4474075.74,ETRS89 / UTM  Zona 30N,EN SERVICIO,,3-nov.-17,-3.7205578,40.4150604,4331337787,40.4147711,-3.7201578,"(40.414771100000003, -3.7201578)",,46.72083532243862,"('40.4150604', '-3.7205578')"
FB_000023,ZV,RETIRO,JARDINES DEL BUEN RETIRO,A. 14 · ESTANQUE,441965.89,4474101.4,ETRS89 / UTM  Zona 30N,EN SERVICIO,,3-nov.-17,-3.6840387,40.4155134,1591488129,40.4155784,-3.684145,"(40.415578400000001, -3.684145)",,11.545650864218869,"('40.4155134', '-3.6840387')"
FUE_01-01_0000000044,VP,CENTRO,"CIUDAD RODRIGO, JUNTO ACCESO PZA. MAYOR",CV TRAVESÍA DE BRINGAS,439879.02,4474144.04,ETRS89 / UTM  Zona 30N,EN SERVICIO,,3-nov.-17,-3.7086386,40.4157493,5025000037,40.4157764,-3.7086889,"(40.415776399999999, -3.7086888999999998)",,5.218188697218733,"('40.4157493', '-3.7086386')"
FUE_05-19_0000000067,ZV,VICÁLVARO,CUÑA VERDE ZONA C CERCA DEL PARQUING,,448035.2759,4474131.755,ETRS89 / UTM  Zona 30N,EN SERVICIO,,3-nov.-17,-3.6125064,40.416188,3011267671,40.4161782,-3.6124421,"(40.416178199999997, -3.6124421)",,5.553126912043037,"('40.416188', '-3.6125064')"
FUE_02-03_0000000041,VP,RETIRO,ALCALDE SAINZ DE BARANDA Nº 65 (EN EL BULEVAR),,443184.3429,4474203.072,ETRS89 / UTM  Zona 30N,FUERA DE SERVICIO,DEFICIENCIA ESTRUCTURAL,3-nov.-17,-3.6696871,40.4165133,2496787801,40.4165255,-3.669605,"(40.416525499999999, -3.6696049999999998)",,7.083600975033163,"('40.4165133', '-3.6696871')"
FB_000031,ZV,RETIRO,JARDINES DEL BUEN RETIRO,A. 2 · HERRERO PALACIOS,442432.11,4474225.04,ETRS89 / UTM  Zona 30N,EN SERVICIO,,3-nov.-17,-3.678555,40.4166595,3395833336,40.4167336,-3.6784981,"(40.416733600000001, -3.6784981000000001)",,9.547010291863804,"('40.4166595', '-3.678555')"
FUE_02-03_0000000010,ZV,RETIRO,JARDINES Pº JOHN LENNON,C/MARQUÉS DE LOZOYA Nº 6,443511.2571,4474224.198,ETRS89 / UTM  Zona 30N,EN SERVICIO,,3-nov.-17,-3.6658358,40.4167259,3006321252,40.416696,-3.6656627,"(40.416696000000002, -3.6656626999999999)",,15.03098320728452,"('40.4167259', '-3.6658358')"
FUE_02-03_0000000044,VP,RETIRO,ALCALDE SAINZ DE BARANDA Nº 20 (Nº 18 EN EL BULEVAR),,442625.9453,4474250.381,ETRS89 / UTM  Zona 30N,EN SERVICIO,,3-nov.-17,-3.6762726,40.4169012,2496787803,40.4169324,-3.6761411,"(40.4169324, -3.6761411000000002)",,11.663852282415439,"('40.4169012', '-3.6762726')"
FB_000033,ZV,MONCLOA-ARAVACA,CASA DE CAMPO ZONA URBANA,FUENTE DE LOS NEVEROS (PASEO DE CASTAÑOS),437608.5701,4474326.113,ETRS89 / UTM  Zona 30N,EN SERVICIO,,3-nov.-17,-3.7354159,40.4172224,1435775507,40.4172579,-3.7352657,"(40.417257900000003, -3.7352656999999998)",,13.31793647974846,"('40.4172224', '-3.7354159')"
FB_000026,ZV,RETIRO,JARDINES DEL BUEN RETIRO,A. 14 · ESTANQUE,442235.03,4474305.95,ETRS89 / UTM  Zona 30N,EN SERVICIO,,3-nov.-17,-3.6808852,40.4173748,3497610236,40.4172923,-3.680829,"(40.4172923, -3.6808290000000001)",,10.336871922030463,"('40.4173748', '-3.6808852')"
FB_000034,ZV,MONCLOA-ARAVACA,CASA DE CAMPO ZONA URBANA,FUENTE DEL TRIANGULO,437726.5995,4474366.658,ETRS89 / UTM  Zona 30N,EN SERVICIO,,3-nov.-17,-3.7340287,40.4175965,1418447314,40.4176052,-3.7338908,"(40.417605199999997, -3.7338908000000002)",,11.717521696947292,"('40.4175965', '-3.7340287')"
FB_000031,ZV,MONCLOA-ARAVACA,CASA DE CAMPO ZONA URBANA,FUENTE Nº1 DEL BOSQUE DEL RUISEÑOR,437379.459,4474406.618,ETRS89 / UTM  Zona 30N,EN SERVICIO,,3-nov.-17,-3.7381242,40.4179305,3150449393,40.4180163,-3.7380824,"(40.418016299999998, -3.7380824000000001)",,10.178505585358831,"('40.4179305', '-3.7381242')"
FB_000027,ZV,MONCLOA-ARAVACA,CASA DE CAMPO ZONA URBANA,FUENTE Nº5 DEL BOSQUE DEL RUISEÑOR,436981.6769,4474426.109,ETRS89 / UTM  Zona 30N,EN SERVICIO,,3-nov.-17,-3.7428145,40.418076,3150449394,40.4181394,-3.742834,"(40.418139400000001, -3.7428340000000002)",,7.2424980860023105,"('40.418076', '-3.7428145')"
FB_000035,ZV,MONCLOA-ARAVACA,CASA DE CAMPO ZONA URBANA,FUENTE DEL CENTRO DE INFORMACION,438062.4403,4474429.841,ETRS89 / UTM  Zona 30N,EN SERVICIO,,3-nov.-17,-3.7300766,40.4181907,4331338091,40.4185785,-3.7300601,"(40.418578500000002, -3.7300601000000002)",,43.156165827709195,"('40.4181907', '-3.7300766')"
FUE_02-03_0000000039,VP,RETIRO,IBIZA Nº 16 ( EN EL BULEVAR),,442610.5469,4474400.482,ETRS89 / UTM  Zona 30N,EN SERVICIO,,3-nov.-17,-3.6764677,40.4182523,1917865206,40.4182602,-3.6763924,"(40.418260199999999, -3.6763924000000001)",,6.436668141729847,"('40.4182523', '-3.6764677')"
FB_000004,ZV,RETIRO,JARDINES DEL BUEN RETIRO,A. 12 · EL POVAR,441846.65,4474411.3,ETRS89 / UTM  Zona 30N,EN SERVICIO,,3-nov.-17,-3.6854724,40.4182968,2496787804,40.4183443,-3.6855094,"(40.418344300000001, -3.6855093999999999)",,6.14242555338011,"('40.4182968', '-3.6854724')"
FUE_02-03_0000000043,VP,RETIRO,ALCALA Nº 50,,441316.5538,4474539.499,ETRS89 / UTM  Zona 30N,EN SERVICIO,,3-nov.-17,-3.6917323,40.4194144,2928885261,40.4194271,-3.6916391,"(40.4194271, -3.6916391000000002)",,8.017466423736128,"('40.4194144', '-3.6917323')"
FB_000042,ZV,MONCLOA-ARAVACA,CASA DE CAMPO ZONA URBANA,FUENTE DEL PLATANO GORDO (EN PASEO DE LA TORRECILLA),437762.0874,4474704.647,ETRS89 / UTM  Zona 30N,EN SERVICIO,,3-nov.-17,-3.7336435,40.4206439,1052390709,40.4206483,-3.7335474,"(40.420648300000003, -3.7335474)",,8.15216974442331,"('40.4206439', '-3.7336435')"
FUE_04-20_0000000064,ZV,SAN BLAS,ARCOS DE JALON - SAN ROMAN DEL VALLE,"SAN ROMAN DEL VALLE, 6",447247.85,4474706.77,ETRS89 / UTM  Zona 30N,EN SERVICIO,,3-nov.-17,-3.621835,40.4213185,3429023897,40.4213667,-3.6218804,"(40.4213667, -3.6218804000000002)",,6.59697576400249,"('40.4213185', '-3.621835')"
FUE_01-09_0000000001,ZV,MONCLOA-ARAVACA,PLAZA ESPAÑA,PLAZA ESPAÑA,439503.9271,4474906.253,ETRS89 / UTM  Zona 30N,EN SERVICIO,,3-nov.-17,-3.7131319,40.4225885,3500567653,40.4225917,-3.7129495,"(40.422591699999998, -3.7129495000000001)",,15.4487522868287,"('40.4225885', '-3.7131319')"
FB_000066,ZV,SALAMANCA,QUINTA DE LA FUENTE DEL BERRO,A. 7 · PEÑASCALES,443752.2,4474947.14,ETRS89 / UTM  Zona 30N,EN SERVICIO,,3-nov.-17,-3.6630599,40.4232549,297682006,40.4232182,-3.6630123,"(40.423218200000001, -3.6630123000000001)",,5.736503225796787,"('40.4232549', '-3.6630599')"
FUE_02-04_0000000038,ZV,SALAMANCA,AVDA FELIPE II Nº 5,AVDA FELIPE II Nº 5,442709.5834,4475055.859,ETRS89 / UTM  Zona 30N,EN SERVICIO,,3-nov.-17,-3.6753595,40.4241632,4406606777,40.4242191,-3.6753988,"(40.424219100000002, -3.6753988)",,7.052024124368399,"('40.4241632', '-3.6753595')"
FUE_02-04_0000000025,ZV,SALAMANCA,PZA. DE DALI,,442884.628,4475062.161,ETRS89 / UTM  Zona 30N,EN SERVICIO,,3-nov.-17,-3.6732967,40.4242319,3463021602,40.4242798,-3.6732824,"(40.424279800000001, -3.6732824000000002)",,5.463594643670678,"('40.4242319', '-3.6732967')"
FUE_04-20_0000000019,ZV,SAN BLAS,Pº GINEBRA,"GINEBRA, 13",448647.5402,4475062.395,ETRS89 / UTM  Zona 30N,EN SERVICIO,,3-nov.-17,-3.6053652,40.4246098,1245970134,40.424851,-3.605743,"(40.424850999999997, -3.6057429999999999)",,41.749599658762826,"('40.4246098', '-3.6053652')"
FB_000045,ZV,MONCLOA-ARAVACA,CASA DE CAMPO ZONA URBANA,FUENTE DE LA GLORIETA DE LAS MORERAS,437770.815,4475163.962,ETRS89 / UTM  Zona 30N,EN SERVICIO,,3-nov.-17,-3.7335856,40.4247822,1052390720,40.4248716,-3.7335291,"(40.424871600000003, -3.7335291000000002)",,11.034580614851425,"('40.4247822', '-3.7335856')"
FUE_01-01_0000000004,ZV,CENTRO,PLAZA VILLA DE PARIS,PLAZA VILLA DE PARIS,441281.789,4475192.9,ETRS89 / UTM  Zona 30N,EN SERVICIO,,3-nov.-17,-3.6922023,40.4252981,4237288297,40.4254296,-3.6922473,"(40.425429600000001, -3.6922473)",,15.11439367491372,"('40.4252981', '-3.6922023')"
FUE_04-20_0000000085,ZV,SAN BLAS,PARQUE DE SAN BLAS - EL PARAISO,"ARCENTALES, 2",446875.5343,4475199.49,ETRS89 / UTM  Zona 30N,EN SERVICIO,,3-nov.-17,-3.6262647,40.4257335,1325487155,40.4257093,-3.6263327,"(40.425709300000001, -3.6263326999999999)",,6.355717810068644,"('40.4257335', '-3.6262647')"
FUE_04-20_0000000095,ZV,SAN BLAS,PARQUE DE SAN BLAS - EL PARAISO,"AJOFRIN, 2",446936.1148,4475208.495,ETRS89 / UTM  Zona 30N,EN SERVICIO,,3-nov.-17,-3.6255514,40.4258185,2623339508,40.4255948,-3.6259996,"(40.425594799999999, -3.6259996000000001)",,45.37882081243005,"('40.4258185', '-3.6255514')"
FUE_04-15_0000000097,ZV,CIUDAD LINEAL,JOSE ARCONES GIL,"JOSE ARCONES GIL, 126",446320.2406,4475315.161,ETRS89 / UTM  Zona 30N,EN SERVICIO,,3-nov.-17,-3.6328202,40.4267399,3394190477,40.4268174,-3.6328736,"(40.426817399999997, -3.6328735999999999)",,9.733835123567797,"('40.4267399', '-3.6328202')"
FUE_02-04_0000000040,ZV,SALAMANCA,PARQUE RESIDENCIAL ISABEL II,CALLE RAMÓN AGUINAGA 2,443585.18,4475363.43,ETRS89 / UTM  Zona 30N,EN SERVICIO,,3-nov.-17,-3.6650656,40.4269937,4332345244,40.4267792,-3.6654199,"(40.426779199999999, -3.6654198999999998)",,38.32889118974218,"('40.4269937', '-3.6650656')"
FUE_01-01_0000000001,ZV,CENTRO,PLAZA COMENDADORAS,PLAZA COMENDADORAS,439892.4997,4475419.798,ETRS89 / UTM  Zona 30N,EN SERVICIO,,3-nov.-17,-3.7086003,40.4272429,2861771473,40.4272963,-3.708589,"(40.427296300000002, -3.7085889999999999)",,6.016047723956632,"('40.4272429', '-3.7086003')"
FUE_03-09_0000000030,ZV,MONCLOA-ARAVACA,PARQUE DE LA BOMBILLA,JUNTOO A JUEGOS INFANTILES,438260.9317,4475477.582,ETRS89 / UTM  Zona 30N,EN SERVICIO,,3-nov.-17,-3.7278388,40.427644,1916805095,40.427687,-3.7278674,"(40.427686999999999, -3.7278674000000001)",,5.360803550865374,"('40.427644', '-3.7278388')"
FB_000048,ZV,MONCLOA-ARAVACA,CASA DE CAMPO ZONA FORESTAL,FUENTE DE CUATRO GRIFOS DEL PASEO DE LOS PIÐONEROS,437554.7235,4475502.2,ETRS89 / UTM  Zona 30N,EN SERVICIO,,3-nov.-17,-3.7361661,40.427813,3150808039,40.4276085,-3.7357245,"(40.427608499999998, -3.7357244999999999)",,43.76462426096214,"('40.427813', '-3.7361661')"
FB_000049,ZV,MONCLOA-ARAVACA,CASA DE CAMPO ZONA FORESTAL,FUENTE METALICA DEL PASEO DE LOS PIÑONEROS,437513.9287,4475552.651,ETRS89 / UTM  Zona 30N,EN SERVICIO,,3-nov.-17,-3.7366519,40.4282645,1052390741,40.4282947,-3.7365898,"(40.428294700000002, -3.7365898)",,6.239237385402905,"('40.4282645', '-3.7366519')"
FUE_04-15_0000000088,ZV,CIUDAD LINEAL,AVDA. MARQUES DE CORBERA - SAN CLODOALDO,"HERMANOS GOMEZ, 50",444929.6116,4475508.917,ETRS89 / UTM  Zona 30N,EN SERVICIO,,3-nov.-17,-3.6492299,40.4283945,3497491528,40.4284446,-3.6491897,"(40.428444599999999, -3.6491897)",,6.529678316438791,"('40.4283945', '-3.6492299')"
FUE_01-07_0000000007,ZV,CHAMBERÍ,"PO CASTELLANA, DE LA Nº:19",PASEO DE LA CASTELLANA IV,441497.1641,4475576.983,ETRS89 / UTM  Zona 30N,EN SERVICIO,,3-nov.-17,-3.6896989,40.4287733,4330672719,40.4286719,-3.6893863,"(40.428671899999998, -3.6893862999999998)",,28.769714296893966,"('40.4287733', '-3.6896989')"
FUE_02-04_0000000039,ZV,SALAMANCA,PARQUE SANCHO DÁVILA,ENTRADA POR PLAZA AMÉRICA ESPAÑOLA,443883.2367,4475591.451,ETRS89 / UTM  Zona 30N,EN SERVICIO,,3-nov.-17,-3.6615722,40.429068,4332345246,40.4293424,-3.6619985,"(40.429342400000003, -3.6619985000000002)",,47.267559185796806,"('40.429068', '-3.6615722')"
FUE_02-04_0000000024,ZV,SALAMANCA,PARQUE DE MARIA EVA DUARTE DE PERON,,443271.7044,4475605.179,ETRS89 / UTM  Zona 30N,EN SERVICIO,,3-nov.-17,-3.6687825,40.4291502,1474140980,40.4290608,-3.6687341,"(40.429060800000002, -3.6687341)",,10.754912234300503,"('40.4291502', '-3.6687825')"
FB_000057,ZV,MONCLOA-ARAVACA,CASA DE CAMPO ZONA FORESTAL,FUENTE DE LA CARRETERA DE GARAVITAS (CURVA DE LA MUERTE),437410.3293,4475762.099,ETRS89 / UTM  Zona 30N,EN SERVICIO,,3-nov.-17,-3.7378937,40.4301435,1052390702,40.4301741,-3.737845,"(40.430174100000002, -3.7378450000000001)",,5.346463266317426,"('40.4301435', '-3.7378937')"
FUE_04-15_0000000031,ZV,CIUDAD LINEAL,PAR VITAL AZA - CAROLINA CORONADO,"CAROLINA CORONADO, 26",445341.0006,4475751.13,ETRS89 / UTM  Zona 30N,EN SERVICIO,,3-nov.-17,-3.6444011,40.4306036,4330668671,40.4305461,-3.6445607,"(40.430546100000001, -3.6445607)",,14.949557873241687,"('40.4306036', '-3.6444011')"
FUE_02-04_0000000026,ZV,SALAMANCA,JARDIN DE LA VIRGEN DEL PILAR,C/GENERAL PARDIÑAS CV C/JUAN BRAVO,442498.1789,4475963.332,ETRS89 / UTM  Zona 30N,EN SERVICIO,,3-nov.-17,-3.6779335,40.4323235,2823633513,40.4323957,-3.6779632,"(40.432395700000001, -3.6779632000000002)",,8.414990640110318,"('40.4323235', '-3.6779335')"
FUE_04-20_0000000090,ZV,SAN BLAS,PARQUE DE SAN BLAS - EL PARAISO,"ALBAIDA, 34",447560.5002,4476065.9,ETRS89 / UTM  Zona 30N,EN SERVICIO,,3-nov.-17,-3.6182618,40.4335821,1325487923,40.4336193,-3.618304,"(40.433619299999997, -3.6183040000000002)",,5.466620955168355,"('40.4335821', '-3.6182618')"
FB_000096,ZV,MONCLOA-ARAVACA,CASA DE CAMPO ZONA FORESTAL,FUENTE DE LA SUBESTACIÓN,437067.9674,4476154.004,ETRS89 / UTM  Zona 30N,EN SERVICIO,,3-nov.-17,-3.7419684,40.433648,4332355414,40.4337568,-3.7420786,"(40.433756799999998, -3.7420786000000001)",,15.280240789185259,"('40.433648', '-3.7419684')"
FB_000061,ZV,MONCLOA-ARAVACA,CASA DE CAMPO ZONA FORESTAL,FUENTE DEL ESTANQUE DEL REPARTIDOR,436756.5968,4476178.079,ETRS89 / UTM  Zona 30N,EN SERVICIO,,3-nov.-17,-3.7456416,40.4338413,4403559003,40.4338592,-3.7458415,"(40.433859200000001, -3.7458415)",,17.04033243664056,"('40.4338413', '-3.7456416')"
FUE_04-20_0000000093,ZV,SAN BLAS,AMPL. PARQUE EL PARAISO,"ALBAIDA, 94",447970.4677,4476120.33,ETRS89 / UTM  Zona 30N,EN SERVICIO,,3-nov.-17,-3.613433,40.4340982,1325488008,40.434057,-3.6133962,"(40.434057000000003, -3.6133961999999999)",,5.541282191518536,"('40.4340982', '-3.613433')"
FUE_04-15_0000000056,ZV,CIUDAD LINEAL,PZA. VIRGEN DEL CORO,"VIRGEN DE LA ROCA, 6",444202.6708,4476149.887,ETRS89 / UTM  Zona 30N,EN SERVICIO,,3-nov.-17,-3.6578556,40.4341202,3510131454,40.4341935,-3.6578591,"(40.434193499999999, -3.6578591)",,8.158267318893166,"('40.4341202', '-3.6578556')"
FUE_04-15_0000000058,ZV,CIUDAD LINEAL,PZA. VIRGEN DE LA ROCA,"VIRGEN DE LA ROCA, 20",444227.5389,4476292.391,ETRS89 / UTM  Zona 30N,EN SERVICIO,,3-nov.-17,-3.6575749,40.4354056,3417769817,40.4354484,-3.6576251,"(40.435448399999999, -3.6576251000000002)",,6.381494515671024,"('40.4354056', '-3.6575749')"
FUE_04-15_0000000087,ZV,CIUDAD LINEAL,ARTURO SORIA,"ARTURO SORIA, 10",445844.051,4476658.861,ETRS89 / UTM  Zona 30N,EN SERVICIO,,3-nov.-17,-3.6385481,40.4388138,3494845457,40.4388631,-3.6384911,"(40.438863099999999, -3.6384911)",,7.304222951363839,"('40.4388138', '-3.6385481')"
FUE_04-15_0000000086,ZV,CIUDAD LINEAL,ARTURO SORIA,"ARTURO SORIA, 18",445769.3566,4476796.655,ETRS89 / UTM  Zona 30N,EN SERVICIO,,3-nov.-17,-3.6394405,40.4400503,3413251898,40.4400674,-3.6394996,"(40.440067399999997, -3.6394996000000002)",,5.352307972364115,"('40.4400503', '-3.6394405')"
FB_000044,ZV,SAN BLAS,QUINTA DE LOS MOLINOS,ALMENDROS POLIDEPORTIVO,446881.84,4476942.01,ETRS89 / UTM  Zona 30N,EN SERVICIO,,3-nov.-17,-3.626336,40.4414315,2981348699,40.4413999,-3.6263888,"(40.4413999, -3.6263888)",,5.685992471044657,"('40.4414315', '-3.626336')"
FUE_02-04_0000000017,ZV,SALAMANCA,BERLIN - BRISTOL,C/ BERLÍN Nº 8,443859.9013,4477044.378,ETRS89 / UTM  Zona 30N,EN SERVICIO,,3-nov.-17,-3.6619757,40.4421552,3984152815,40.4421918,-3.6619012,"(40.442191800000003, -3.6619012)",,7.506200072167882,"('40.4421552', '-3.6619757')"
FUE_04-20_0000000075,ZV,SAN BLAS,PAR ESFINGE,"NECTAR, 32",448220.6976,4477097.078,ETRS89 / UTM  Zona 30N,EN SERVICIO,,3-nov.-17,-3.6105625,40.442913,4215726084,40.442978,-3.6105963,"(40.442977999999997, -3.6105963000000001)",,7.775265741103664,"('40.442913', '-3.6105625')"
FUE_02-05_0000000027,ZV,CHAMARTIN,"PADRE CLARET, 7-9",,443569.9173,4477460.164,ETRS89 / UTM  Zona 30N,EN SERVICIO,,3-nov.-17,-3.6654317,40.4458811,3985895003,40.4459275,-3.6654321,"(40.445927500000003, -3.6654320999999999)",,5.161009309426886,"('40.4458811', '-3.6654317')"
FUE_04-15_0000000083,ZV,CIUDAD LINEAL,ARTURO SORIA,"ARTURO SORIA, 77",445044.1756,4477457.359,ETRS89 / UTM  Zona 30N,FUERA DE SERVICIO,NO APTA CONSUMO,3-nov.-17,-3.6480478,40.4459547,3439157637,40.4459121,-3.6480075,"(40.445912100000001, -3.6480074999999998)",,5.8384252611363605,"('40.4459547', '-3.6480478')"
FB_000043,ZV,SAN BLAS,QUINTA DE LOS MOLINOS,CIPRESES ,446569.84,4477512.41,ETRS89 / UTM  Zona 30N,EN SERVICIO,,3-nov.-17,-3.6300627,40.44655,3973699909,40.4466327,-3.6299745,"(40.446632700000002, -3.6299744999999999)",,11.84679286032671,"('40.44655', '-3.6300627')"
FUE_04-15_0000000082,ZV,CIUDAD LINEAL,ARTURO SORIA,"ARTURO SORIA, 120",444886.0552,4477685.047,ETRS89 / UTM  Zona 30N,EN SERVICIO,,3-nov.-17,-3.649932,40.4479953,3457872687,40.448036,-3.6499589,"(40.448036000000002, -3.6499589000000001)",,5.067258875358402,"('40.4479953', '-3.649932')"
FUE_04-15_0000000119,ZV,CIUDAD LINEAL,COL. PARQUE SAN JUAN BAUTISTA ,"TORRELAGUNA, 81",444261.5751,4477748.476,ETRS89 / UTM  Zona 30N,EN SERVICIO,,3-nov.-17,-3.6573013,40.4485251,4121646838,40.4485004,-3.6572498,"(40.4485004, -3.6572498000000002)",,5.152573949211629,"('40.4485251', '-3.6573013')"
FUE_02-05_0000000050,ZV,CHAMARTIN,PARQUE DE BERLIN,C/SAN ERNESTO Nº 10 ,442699.514,4477862.009,ETRS89 / UTM  Zona 30N,EN SERVICIO,,3-nov.-17,-3.6757313,40.4494416,2563299638,40.4494926,-3.6757788,"(40.449492599999999, -3.6757787999999998)",,6.952813440842753,"('40.4494416', '-3.6757313')"
FUE_04-20_0000000007,ZV,SAN BLAS,CIUDAD PEGASO - Z.A.+ Z.F.,"UNO, 4",449668.6039,4477823.171,ETRS89 / UTM  Zona 30N,EN SERVICIO,,3-nov.-17,-3.5935478,40.4495429,3506636120,40.4495739,-3.5934935,"(40.449573899999997, -3.5934935000000001)",,5.745599092082116,"('40.4495429', '-3.5935478')"
FUE_02-05_0000000041,ZV,CHAMARTIN,PARQUE DE BERLIN,C/DOCTOR MARCO CORERA Nº2,442630.7821,4477952.86,ETRS89 / UTM  Zona 30N,EN SERVICIO,,3-nov.-17,-3.6765499,40.4502553,2563299640,40.4501878,-3.6765324,"(40.450187800000002, -3.6765324000000001)",,7.652489055873432,"('40.4502553', '-3.6765499')"
FUE_04-15_0000000081,ZV,CIUDAD LINEAL,ARTURO SORIA,"ARTURO SORIA, 130",444729.7452,4477961.051,ETRS89 / UTM  Zona 30N,EN SERVICIO,,3-nov.-17,-3.6517992,40.4504713,3439157638,40.4505198,-3.6518108,"(40.450519800000002, -3.6518107999999998)",,5.483093087918629,"('40.4504713', '-3.6517992')"
FUE_04-15_0000000023,ZV,CIUDAD LINEAL,Z.V. COL. PARQUE SAN JUAN BAUTISTA,"CIDAMON, 11",444314.7773,4478022.726,ETRS89 / UTM  Zona 30N,EN SERVICIO,,3-nov.-17,-3.656698,40.4509993,4065603213,40.4510423,-3.6567279,"(40.451042299999997, -3.6567278999999999)",,5.411002103928008,"('40.4509993', '-3.656698')"
FUE_02-05_0000000069,VP,CHAMARTIN,PL VIRGEN DE GUADALUPANA Nº 1,,442778.1837,4478090.399,ETRS89 / UTM  Zona 30N,FUERA DE SERVICIO,DEFICIENCIA ESTRUCTURAL,3-nov.-17,-3.6748242,40.4515045,2563304847,40.4514114,-3.6749166,"(40.451411399999998, -3.6749166)",,12.976550029128175,"('40.4515045', '-3.6748242')"
FUE_02-05_0000000014,ZV,CHAMARTIN,PARQUE FELIX RGUEZ. DE LA FUENTE,CALLE DEL PADRE CLARET N º32,443682.2042,4478192.976,ETRS89 / UTM  Zona 30N,EN SERVICIO,,3-nov.-17,-3.6641727,40.4524903,4149600025,40.4525253,-3.6642268,"(40.452525299999998, -3.6642267999999998)",,6.01005573373908,"('40.4524903', '-3.6641727')"
FUE_04-21_0000000038,ZV,BARAJAS,PARQUE BIOSALUDABLE,"ALAMEDA DE OSUNA, 50",449340.3151,4478212.024,ETRS89 / UTM  Zona 30N,FUERA DE SERVICIO,NO APTA CONSUMO,3-nov.-17,-3.59745,40.453026,3657771745,40.4531113,-3.5973653,"(40.453111300000003, -3.5973652999999999)",,11.891369370274507,"('40.453026', '-3.59745')"
FUE_04-16_0000000088,ZV,HORTALEZA,A.V.C. AVDA. DE LOGROÑO - M-40 Z.F.N.C.,"LUIS DE LA MATA, 41",447959.6427,4478515.995,ETRS89 / UTM  Zona 30N,EN SERVICIO,,3-nov.-17,-3.6137569,40.4556791,310801499,40.455712,-3.6138003,"(40.455711999999998, -3.6138002999999999)",,5.184808307343693,"('40.4556791', '-3.6137569')"
FB_120025,ZV,BARAJAS,JUAN CARLOS I,B.05 · CABALLÓN 1,448904.25,4478660.53,ETRS89 / UTM  Zona 30N,EN SERVICIO,,3-nov.-17,-3.6026285,40.4570397,2981319370,40.4570845,-3.6025607,"(40.457084500000001, -3.6025607000000002)",,7.599622261863297,"('40.4570397', '-3.6026285')"
FB_120032,ZV,BARAJAS,JUAN CARLOS I,B.10 · PINAR DE VERANO,448535.67,4478696.2,ETRS89 / UTM  Zona 30N,EN SERVICIO,,3-nov.-17,-3.6069783,40.4573383,480437568,40.4573285,-3.6068901,"(40.457328500000003, -3.6068901000000002)",,7.543609988564024,"('40.4573383', '-3.6069783')"
FUE_03-09_0000000109,VP,MONCLOA-ARAVACA,CL FRANCOS RODRIGUEZ Nº:106,,439323.0252,4478918.503,ETRS89 / UTM  Zona 30N,EN SERVICIO,,3-nov.-17,-3.7156474,40.4587193,5050304121,40.4587521,-3.7155952,"(40.458752099999998, -3.7155952000000001)",,5.729315570687761,"('40.4587193', '-3.7156474')"
FUE_04-15_0000000077,ZV,CIUDAD LINEAL,ARTURO SORIA,"ARTURO SORIA, 198",444087.9235,4478902.225,ETRS89 / UTM  Zona 30N,EN SERVICIO,,3-nov.-17,-3.6594507,40.458907,3785145940,40.4589519,-3.659516,"(40.458951900000002, -3.659516)",,7.448505101800556,"('40.458907', '-3.6594507')"
FUE_04-21_0000000005,ZV,BARAJAS,PARQUE MARI LUZ NAJERA,"BERGANTIN, 26",450596.1829,4478865.053,ETRS89 / UTM  Zona 30N,FUERA DE SERVICIO,DEFICIENCIA ESTRUCTURAL,3-nov.-17,-3.5826907,40.4589845,1932126801,40.4590453,-3.582668,"(40.4590453, -3.582668)",,7.030127222566126,"('40.4589845', '-3.5826907')"
FUE_03-09_0000000110,VP,MONCLOA-ARAVACA,CL FRANCOS RODRIGUEZ Nº:83,,439076.0105,4478997.952,ETRS89 / UTM  Zona 30N,EN SERVICIO,,3-nov.-17,-3.7185683,40.459417,1802463898,40.4594691,-3.7186728,"(40.4594691, -3.7186727999999998)",,10.57311928966623,"('40.459417', '-3.7185683')"
FB_120019,ZV,BARAJAS,JUAN CARLOS I,B.01 · 4 ESTACIONES,449577.77,4479060.02,ETRS89 / UTM  Zona 30N,EN SERVICIO,,3-nov.-17,-3.5947171,40.4606797,2981324452,40.4607315,-3.5947597,"(40.460731500000001, -3.5947597)",,6.796456316836905,"('40.4606797', '-3.5947171')"
FUE_04-16_0000000049,ZV,HORTALEZA,PARQUE LOS LLANOS,"DIONISIO INCA YUPANQUI, 23",446428.3291,4479177.172,ETRS89 / UTM  Zona 30N,EN SERVICIO,,3-nov.-17,-3.6318718,40.461538,1240306089,40.4614781,-3.631873,"(40.461478100000001, -3.6318730000000001)",,6.663226577530216,"('40.461538', '-3.6318718')"
FB_120011,ZV,BARAJAS,JUAN CARLOS I,D.04 · TRES CULTURAS,448753.85,4479516.85,ETRS89 / UTM  Zona 30N,EN SERVICIO,,3-nov.-17,-3.6044714,40.4647447,485099119,40.4646903,-3.6044438,"(40.464690300000001, -3.6044437999999999)",,6.485822235087757,"('40.4647447', '-3.6044714')"
FUE_01-06_0000000064,VP,TETUÁN,"CL MIOSOTIS, DEL Nº:24",,440653.09,4479585.586,ETRS89 / UTM  Zona 30N,EN SERVICIO,,3-nov.-17,-3.7000237,40.4648248,2946232762,40.4648181,-3.6999539,"(40.464818100000002, -3.6999539000000001)",,5.953402029254618,"('40.4648248', '-3.7000237')"
FB_120015,ZV,BARAJAS,JUAN CARLOS I,D.05 · PINAR DE LAS TRES CULTURAS,448892.4,4479533.32,ETRS89 / UTM  Zona 30N,EN SERVICIO,,3-nov.-17,-3.6028386,40.4649016,3387715379,40.4649081,-3.6027729,"(40.464908100000002, -3.6027729000000002)",,5.606432254719265,"('40.4649016', '-3.6028386')"
FUE_01-06_0000000070,VP,TETUÁN,CL GARCI-NUÑO Nº:4,C/ GARCI-NUÑO C/V C/ ANTONIO LANZUELA,440542.6342,4479762.845,ETRS89 / UTM  Zona 30N,EN SERVICIO,,3-nov.-17,-3.7013431,40.4664137,2946232764,40.4664598,-3.7012578,"(40.466459800000003, -3.7012578)",,8.85390336208285,"('40.4664137', '-3.7013431')"
FUE_02-05_0000000068,VP,CHAMARTIN,"C/ MATEO INURRIA, Nº 19",,442019.6019,4479846.52,ETRS89 / UTM  Zona 30N,EN SERVICIO,,3-nov.-17,-3.68393,40.4672718,297655027,40.4672427,-3.6839934,"(40.4672427, -3.6839933999999999)",,6.265561084829678,"('40.4672718', '-3.68393')"
FUE_04-16_0000000042,ZV,HORTALEZA,PZA. GOLMAYO,"GOLMAYO, 17",443882.6755,4479832.98,ETRS89 / UTM  Zona 30N,EN SERVICIO,,3-nov.-17,-3.6619535,40.4672778,3964214899,40.4673012,-3.6618917,"(40.467301200000001, -3.6618917)",,5.841299409669189,"('40.4672778', '-3.6619535')"
FUE_04-16_0000000121,ZV,HORTALEZA,PARQUE SAN LORENZO,"MACUAJE, 5",446378.2271,4480083.578,ETRS89 / UTM  Zona 30N,EN SERVICIO,,3-nov.-17,-3.6325392,40.4697002,1518829871,40.4695759,-3.6326981,"(40.469575900000002, -3.6326980999999998)",,19.28524468050367,"('40.4697002', '-3.6325392')"
FUE_04-16_0000000003,ZV,HORTALEZA,JARDIN BUCARAMANGA,"BUCARAMANGA, 2",445826.7418,4480391.514,ETRS89 / UTM  Zona 30N,FUERA DE SERVICIO,DEFICIENCIA ESTRUCTURAL,3-nov.-17,-3.6390707,40.4724384,3986836405,40.4724428,-3.6389914,"(40.472442800000003, -3.6389914000000001)",,6.727543378061886,"('40.4724384', '-3.6390707')"
FUE_01-06_0000000024,ZV,TETUÁN,AVDA. ASTURIAS-PERGOLAS,AVDA. ASTURIAS-PERGOLAS,440663.5598,4480472.609,ETRS89 / UTM  Zona 30N,EN SERVICIO,,3-nov.-17,-3.6999831,40.4728162,3961357666,40.4728058,-3.6999045,"(40.472805800000003, -3.6999045000000002)",,6.750305119660947,"('40.4728162', '-3.6999831')"
FUE_04-16_0000000087,ZV,HORTALEZA,CUBIERTA SAN LORENZO,"CHUCURI, 12",446280.6609,4480492.078,ETRS89 / UTM  Zona 30N,EN SERVICIO,,3-nov.-17,-3.6337247,40.4733739,1448407559,40.4734154,-3.6336507,"(40.4734154, -3.6336507)",,7.778747035676642,"('40.4733739', '-3.6337247')"
FUE_03-08_0000000053,ZV,FUENCARRAL-EL PARDO,POL. 24 V.V.V.,C/JUAN SÁNCHEZ C/V C/CÉSAR MANRIQUE,438929.6158,4480618.053,ETRS89 / UTM  Zona 30N,EN SERVICIO,,3-nov.-17,-3.7204507,40.4740007,2946271316,40.4735705,-3.720387,"(40.473570500000001, -3.7203870000000001)",,48.15211841267473,"('40.4740007', '-3.7204507')"
FUE_03-08_0000000138,VP,FUENCARRAL-EL PARDO,AV MONFORTE DE LEMOS Nº:195,,438890.8276,4480795.564,ETRS89 / UTM  Zona 30N,EN SERVICIO,,3-nov.-17,-3.7209253,40.4755969,2946271319,40.4754267,-3.7209654,"(40.4754267, -3.7209653999999999)",,19.232334349896835,"('40.4755969', '-3.7209253')"
FUE_03-08_0000000127,ZV,FUENCARRAL-EL PARDO,PARQUE DE LA ALCAZABA,C/MELCHOR FDEZ. ALMAGOR Nº52 ,440217.9924,4480814.83,ETRS89 / UTM  Zona 30N,EN SERVICIO,,3-nov.-17,-3.7052713,40.4758671,4788639621,40.4756988,-3.7053796,"(40.475698800000004, -3.7053796000000001)",,20.841684930418054,"('40.4758671', '-3.7052713')"
FUE_04-15_0000000059,ZV,CIUDAD LINEAL,PARQUE ANEMONAS,"GOLFO DE SALONICA, 19",443477.2104,4480919.478,ETRS89 / UTM  Zona 30N,EN SERVICIO,,3-nov.-17,-3.6668329,40.477038,3964249625,40.4770876,-3.6668164,"(40.477087599999997, -3.6668164000000001)",,5.690706633263269,"('40.477038', '-3.6668329')"
FUE_04-15_0000000036,ZV,CIUDAD LINEAL,PINAR DE CHAMARTIN,"CALERUEGA, 32",443249.0534,4481380.15,ETRS89 / UTM  Zona 30N,EN SERVICIO,,3-nov.-17,-3.6695657,40.4811724,307782191,40.4812719,-3.669598,"(40.481271900000003, -3.6695980000000001)",,11.39938131068881,"('40.4811724', '-3.6695657')"
FUE_03-08_0000000042,ZV,FUENCARRAL-EL PARDO,BETANZOS - FERMIN CABALLERO,AVDA. DE BETANZOS  Nº60,439508.1466,4481410.69,ETRS89 / UTM  Zona 30N,EN SERVICIO,,3-nov.-17,-3.7137018,40.4811834,1851695655,40.4812269,-3.7137248,"(40.481226900000003, -3.7137248)",,5.21495575271934,"('40.4811834', '-3.7137018')"
FUE_04-15_0000000035,ZV,CIUDAD LINEAL,PINAR DE CHAMARTIN,"CALERUEGA, 112",443312.7554,4481408.649,ETRS89 / UTM  Zona 30N,EN SERVICIO,,3-nov.-17,-3.6688167,40.4814335,307782194,40.4814665,-3.6687648,"(40.481466500000003, -3.6687647999999999)",,5.722861618332214,"('40.4814335', '-3.6688167')"
FUE_03-08_0000000130,ZV,FUENCARRAL-EL PARDO,PZA. - C/ ISLA AROSA C/ FERMIN CABALLERO,C/ISLA DE AROSA  Nº20,439295.6311,4481446.963,ETRS89 / UTM  Zona 30N,EN SERVICIO,,3-nov.-17,-3.7162125,40.4814946,1893858195,40.4814234,-3.7161879,"(40.481423399999997, -3.7161879)",,8.188207193196058,"('40.4814946', '-3.7162125')"
FUE_04-15_0000000037,ZV,CIUDAD LINEAL,PINAR DE CHAMARTIN,"BRIVIESCA, 5",443441.0853,4481457.136,ETRS89 / UTM  Zona 30N,EN SERVICIO,,3-nov.-17,-3.667307,40.481879,307782198,40.4818256,-3.667237,"(40.481825600000001, -3.6672370000000001)",,8.387342676907565,"('40.481879', '-3.667307')"
FUE_03-08_0000000041,ZV,FUENCARRAL-EL PARDO,PZA. DE LA CAROLINA,,439377.8222,4481512.742,ETRS89 / UTM  Zona 30N,EN SERVICIO,,3-nov.-17,-3.7152491,40.4820932,1893858187,40.4820048,-3.7153645,"(40.482004799999999, -3.7153645000000002)",,13.855993577070814,"('40.4820932', '-3.7152491')"
FUE_04-16_0000000116,ZV,HORTALEZA,PARQUE EN C/ INFANTA CATALINA MICAELA,"INFANTA CATALINA MICAELA, 3",444213.0815,4481873.245,ETRS89 / UTM  Zona 30N,EN SERVICIO,,3-nov.-17,-3.6582359,40.4856798,4210986249,40.4856629,-3.6581509,"(40.485662900000001, -3.6581508999999999)",,7.432222965781903,"('40.4856798', '-3.6582359')"
FB_000089,ZV,HORTALEZA,PARQUE FORESTAL DE VALDEBEBAS-PARQUE FELIPE VI,,446989.4416,4482122.241,ETRS89 / UTM  Zona 30N,EN SERVICIO,,3-nov.-17,-3.6255001,40.4881047,3577606822,40.4881568,-3.6254753,"(40.488156799999999, -3.6254753000000002)",,6.162940882129435,"('40.4881047', '-3.6255001')"
FB_000088,ZV,HORTALEZA,PARQUE FORESTAL DE VALDEBEBAS-PARQUE FELIPE VI,,447085.8489,4482250.897,ETRS89 / UTM  Zona 30N,EN SERVICIO,,3-nov.-17,-3.6243733,40.4892699,3577606884,40.4893154,-3.6243316,"(40.489315400000002, -3.6243316000000001)",,6.16882422577197,"('40.4892699', '-3.6243733')"
FUE_04-16_0000000142,ZV,HORTALEZA,PARQUE INFANTA CATALINA MICAELA,"PRINCIPE CARLOS, 13",444749.6123,4482284.494,ETRS89 / UTM  Zona 30N,EN SERVICIO,,3-nov.-17,-3.6519416,40.4894203,4253379167,40.4893676,-3.6519762,"(40.489367600000001, -3.6519762)",,6.551714958815735,"('40.4894203', '-3.6519416')"
FB_000086,ZV,HORTALEZA,PARQUE FORESTAL DE VALDEBEBAS-PARQUE FELIPE VI,,446769.075,4482311.638,ETRS89 / UTM  Zona 30N,EN SERVICIO,,3-nov.-17,-3.628116,40.4897968,3577606918,40.4898558,-3.6280939,"(40.489855800000001, -3.6280939000000001)",,6.823431825871899,"('40.4897968', '-3.628116')"
FB_000085,ZV,HORTALEZA,PARQUE FORESTAL DE VALDEBEBAS-PARQUE FELIPE VI,,446384.5321,4482383.316,ETRS89 / UTM  Zona 30N,EN SERVICIO,,3-nov.-17,-3.6326594,40.4904178,3577606962,40.4904548,-3.6326215,"(40.490454800000002, -3.6326214999999999)",,5.216729338246798,"('40.4904178', '-3.6326594')"
FUE_03-08_0000000097,ZV,FUENCARRAL-EL PARDO,PARQUE ARROYO FRESNO,AVDA.ARRROYOFRESNO C/V SENDA DEL INFANTE,438733.2897,4482607.487,ETRS89 / UTM  Zona 30N,EN SERVICIO,,3-nov.-17,-3.7229588,40.4919077,309412301,40.4918554,-3.7229501,"(40.491855399999999, -3.7229500999999998)",,5.863497375228865,"('40.4919077', '-3.7229588')"
FUE_04-16_0000000146,ZV,HORTALEZA,PARQUE MARIA TUDOR,"MARIA TUDOR, 14",444042.6202,4482870.507,ETRS89 / UTM  Zona 30N,EN SERVICIO,,3-nov.-17,-3.6603351,40.494652,4214295911,40.4945969,-3.6604199,"(40.494596899999998, -3.6604198999999999)",,9.43435994171444,"('40.494652', '-3.6603351')"
FB_000084,ZV,HORTALEZA,PARQUE FORESTAL DE VALDEBEBAS-PARQUE FELIPE VI,,446749.788,4482875.658,ETRS89 / UTM  Zona 30N,EN SERVICIO,,3-nov.-17,-3.628391,40.4948766,3577607051,40.4949048,-3.6283411,"(40.4949048, -3.6283411000000001)",,5.258574559826998,"('40.4948766', '-3.628391')"
FB_000080,ZV,HORTALEZA,PARQUE FORESTAL DE VALDEBEBAS-PARQUE FELIPE VI,,446929.5629,4483122.218,ETRS89 / UTM  Zona 30N,EN SERVICIO,,3-nov.-17,-3.6262903,40.4971092,3533873126,40.4971581,-3.6262801,"(40.4971581, -3.6262800999999998)",,5.506961025848941,"('40.4971092', '-3.6262903')"
FUE_03-08_0000000009,ZV,FUENCARRAL-EL PARDO,A.V.C. LAS TABLAS,C/PALAS DE REY Nº5,443952.9451,4483781.233,ETRS89 / UTM  Zona 30N,EN SERVICIO,,3-nov.-17,-3.6614738,40.5028501,309542785,40.5028865,-3.6614202,"(40.502886500000002, -3.6614201999999998)",,6.077894503516976,"('40.5028501', '-3.6614738')"
FUE_03-08_0000000004,ZV,FUENCARRAL-EL PARDO,"AVDA MONTECARMELO, 10 ",DETRÁS DEL CEMENTERIO,440420.3714,4484468.585,ETRS89 / UTM  Zona 30N,FUERA DE SERVICIO,DEFICIENCIA ESTRUCTURAL,3-nov.-17,-3.7032275,40.508796,309541570,40.5089403,-3.7033474,"(40.508940299999999, -3.7033474000000002)",,18.98445128981622,"('40.508796', '-3.7032275')"
FUE_03-08_0000000003,ZV,FUENCARRAL-EL PARDO,A.V.C. LAS TABLAS,,443432.2386,4484851.356,ETRS89 / UTM  Zona 30N,EN SERVICIO,,3-nov.-17,-3.6677145,40.512455,3999057370,40.512484,-3.6678101,"(40.512484000000001, -3.6678101000000001)",,8.70381574760625,"('40.512455', '-3.6677145')"
FUE_03-08_0000000012,ZV,FUENCARRAL-EL PARDO,PARQUE DEL PUEBLO DE EL PARDO,,434446.8682,4485509.632,ETRS89 / UTM  Zona 30N,EN SERVICIO,,3-nov.-17,-3.7738356,40.5177233,1065410258,40.5177233,-3.7737616,"(40.5177233, -3.7737615999999998)",,6.257052192800003,"('40.5177233', '-3.7738356')"
