CODIGO,ZV-VP,DISTRITO,DIRECCION,COMP-DIR,X_ETRS89,Y_ETRS89,SISTEMA DE COORDENADAS,ESTADO,OBSERVACIONES,FECHA,LONGITUD,LATITUD,id_OSM,lat_OSM,lon_OSM,coord_OSM,name_OSM,score_OSM,coord
FUE_06-17_0000000071,ZV,VILLAVERDE,INT HUESPED DEL SEVILLANO DÑA FRANCISQUITA,,440666.7395,4467541.098,ETRS89 / UTM  Zona 30N,EN SERVICIO,,3-nov.-17,-3.698739528656006,40.3563232421875,3371812386,40.3563693,-3.6987094,"(40.356369299999997, -3.6987093999999998)",,5.724033805846712,"(40.356369299999997, -3.6987093999999998)"
FUE_06-17_0000000073,ZV,VILLAVERDE,INTBL. SOTO DEL PARRAL- HUESPED SEVILLANO,,440748.1625,4467576.455,ETRS89 / UTM  Zona 30N,EN SERVICIO,,3-nov.-17,-3.697783946990967,40.35664749145508,3370152669,40.3564846,-3.6978708,"(40.356484600000002, -3.6978708)",,19.55622657967063,"(40.356484600000002, -3.6978708)"
FUE_05-18_0000000048,VP,VILLA DE VALLECAS,CAÑADA DEL SANTISIMO 30,,449168.9057,4468376.501,ETRS89 / UTM  Zona 30N,EN SERVICIO,,3-nov.-17,-3.5986857414245605,40.364410400390625,4450589297,40.3645351,-3.5985856,"(40.364535099999998, -3.5985855999999998)",,16.260331820343204,"(40.364535099999998, -3.5985855999999998)"
FB_100010,ZV,PUENTE VALLECAS,PARQUE LINEAL DEL MANZANAREES,07 · MONTAÑA (C.01),441891.0,4469346.8,ETRS89 / UTM  Zona 30N,EN SERVICIO,,3-nov.-17,-3.6844875812530518,40.372676849365234,1174617840,40.3727266,-3.6844722,"(40.3727266, -3.6844722000000001)",,5.685001179823707,"(40.3727266, -3.6844722000000001)"
FUE_06-12_0000000024,ZV,USERA,PARQUE DE PRADOLONGO,,439829.9992,4469568.607,ETRS89 / UTM  Zona 30N,EN SERVICIO,,3-nov.-17,-3.7087841033935547,40.37452697753906,3733455295,40.3745193,-3.7087134,"(40.374519300000003, -3.7087134000000002)",,6.051612160218768,"(40.374519300000003, -3.7087134000000002)"
FB_100004,ZV,USERA,PARQUE LINEAL DEL MANZANAREES,08 · PRADERA-ESTANQUE (B.05),441665.2,4469579.1,ETRS89 / UTM  Zona 30N,EN SERVICIO,,3-nov.-17,-3.6871683597564697,40.374752044677734,4254265573,40.3748395,-3.6872113,"(40.3748395, -3.6872113)",,10.38555818119916,"(40.3748395, -3.6872113)"
FUE_05-13_0000000093,ZV,PUENTE VALLECAS,AVD DE ENTREVÍAS EN EL CRUCE CON RONDA DEL SUR,,443955.7671,4469789.003,ETRS89 / UTM  Zona 30N,EN SERVICIO,,3-nov.-17,-3.6602063179016113,40.376800537109375,4127649539,40.3768608,-3.6601327,"(40.376860800000003, -3.6601327000000001)",,9.156307628978963,"(40.376860800000003, -3.6601327000000001)"
FUE_05-13_0000000063,ZV,PUENTE VALLECAS,PUERTO DE BALBARÁN JUNTO A PISTAS,,443876.5911,4469893.588,ETRS89 / UTM  Zona 30N,EN SERVICIO,,3-nov.-17,-3.6611480712890625,40.37773895263672,4236658383,40.3778041,-3.6611465,"(40.377804099999999, -3.6611465000000001)",,7.24732026012636,"(40.377804099999999, -3.6611465000000001)"
FUE_05-13_0000000092,ZV,PUENTE VALLECAS,PARQUE LINEAL DE PALOMERAS EN EL CRUCE CON CALLE ARAGONESES,,445387.9364,4470126.469,ETRS89 / UTM  Zona 30N,EN SERVICIO,,3-nov.-17,-3.6433651447296143,40.37993621826172,1295884051,40.3799794,-3.6435365,"(40.379979400000003, -3.6435365000000002)",,15.292449769192622,"(40.379979400000003, -3.6435365000000002)"
FUE_05-13_0000000073,ZV,PUENTE VALLECAS,PARQUE LINEAL DE PALOMERAS EN EL CRUCE CON CALLE LEONESES EN ANILLO CICLISTA,,445103.0512,4470186.518,ETRS89 / UTM  Zona 30N,EN SERVICIO,,3-nov.-17,-3.646726131439209,40.38045883178711,4116738893,40.3804416,-3.646788,"(40.380441599999997, -3.6467879999999999)",,5.5813786931227,"(40.380441599999997, -3.6467879999999999)"
FUE_03-10_0000000071,ZV,LATINA,JARDINES DE LA COL. CASILDA BUSTOS A,CALLE GENERAL ROMERO BASART CV AVDA GENERAL FANJUL,434126.92,4470400.31,ETRS89 / UTM  Zona 30N,EN SERVICIO,,3-nov.-17,-3.7760448455810547,40.381587982177734,4332121748,40.3813012,-3.7756315,"(40.381301200000003, -3.7756314999999998)",,47.37039052029395,"(40.381301200000003, -3.7756314999999998)"
FUE_06-12_0000000052,ZV,USERA,PARQUE OLOF PALME,,439600.9711,4470502.347,ETRS89 / UTM  Zona 30N,EN SERVICIO,,3-nov.-17,-3.7115702629089355,40.3829231262207,3733446724,40.3829853,-3.7118003,"(40.382985300000001, -3.7118003000000002)",,20.680269789980134,"(40.382985300000001, -3.7118003000000002)"
FUE_05-13_0000000138,VP,PUENTE VALLECAS,CONCEJO DE TEVERGA ENTRE Nº 10 Y 14,,442855.3243,4470754.424,ETRS89 / UTM  Zona 30N,EN SERVICIO,,3-nov.-17,-3.673255443572998,40.38542175292969,4339941543,40.3854136,-3.673315,"(40.3854136, -3.6733150000000001)",,5.126543566389785,"(40.3854136, -3.6733150000000001)"
FB_900063,ZV,USERA,MADRID RÍO,Z.27. - VADO - PARQUE LINEAL DEL MANZANARES,440907.9,4470838.6,ETRS89 / UTM  Zona 30N,EN SERVICIO,,3-nov.-17,-3.6962053775787354,40.38604736328125,1284089807,40.3861099,-3.6963637,"(40.386109900000001, -3.6963637)",,15.109437946777259,"(40.386109900000001, -3.6963637)"
FUE_05-13_0000000075,ZV,PUENTE VALLECAS,PARQUE LINEAL DE PALOMERAS EN EL CRUCE CON CALLE DE LOS ANDALUCES,,446193.7102,4471061.254,ETRS89 / UTM  Zona 30N,EN SERVICIO,,3-nov.-17,-3.6339521408081055,40.38840866088867,1352780328,40.3887206,-3.634174,"(40.388720599999999, -3.6341739999999998)",,39.459660214181724,"(40.388720599999999, -3.6341739999999998)"
FUE_02-02_0000000037,ZV,ARGANZUELA,PARQUE ENRIQUE TIERNO GALVAN,EN LACOTA. C/TITÁN Nº 2,442126.2715,4471306.252,ETRS89 / UTM  Zona 30N,EN SERVICIO,,3-nov.-17,-3.681894302368164,40.390342712402344,3634101883,40.3903633,-3.6818381,"(40.390363299999997, -3.6818380999999998)",,5.283230853494393,"(40.390363299999997, -3.6818380999999998)"
FUE_02-02_0000000039,ZV,ARGANZUELA,PARQUE ENRIQUE TIERNO GALVAN,,441803.0759,4471517.317,ETRS89 / UTM  Zona 30N,EN SERVICIO,,3-nov.-17,-3.6857213973999023,40.3922233581543,4252391337,40.3923846,-3.6857146,"(40.3923846, -3.6857145999999998)",,17.9435684862533,"(40.3923846, -3.6857145999999998)"
FB_900056,ZV,ARGANZUELA,MADRID RÍO,Z.23. - ARGANZUELA - Pº DE LA CHOPERA,440535.5,4471544.0,ETRS89 / UTM  Zona 30N,EN SERVICIO,,3-nov.-17,-3.7006583213806152,40.39237594604492,3697360446,40.392434,-3.7006744,"(40.392434000000002, -3.7006744)",,6.599216853293848,"(40.392434000000002, -3.7006744)"
FB_900057,ZV,ARGANZUELA,MADRID RÍO,Z.23. - ARGANZUELA - Pº DE LA CHOPERA,440534.9,4471544.7,ETRS89 / UTM  Zona 30N,EN SERVICIO,,3-nov.-17,-3.7006654739379883,40.39237976074219,3697360446,40.392434,-3.7006744,"(40.392434000000002, -3.7006744)",,6.08003248484702,"(40.392434000000002, -3.7006744)"
FUE_02-02_0000000040,ZV,ARGANZUELA,PARQUE ENRIQUE TIERNO GALVAN,,442001.4877,4471569.775,ETRS89 / UTM  Zona 30N,EN SERVICIO,,3-nov.-17,-3.6833884716033936,40.39270782470703,3634101894,40.3926772,-3.6834434,"(40.392677200000001, -3.6834433999999998)",,5.766636702780742,"(40.392677200000001, -3.6834433999999998)"
FUE_03-10_0000000036,ZV,LATINA,PARQUE DE ALUCHE - ARIAS NAVARRO,,435704.5576,4472123.541,ETRS89 / UTM  Zona 30N,EN SERVICIO,,3-nov.-17,-3.757634401321411,40.39723587036133,1340025575,40.3973861,-3.7577653,"(40.397386099999999, -3.7577653)",,20.053667984763194,"(40.397386099999999, -3.7577653)"
FUE_06-11_0000000039,ZV,CARABANCHEL,PARQUE SAN ISIDRO,,437885.6001,4472208.4,ETRS89 / UTM  Zona 30N,EN SERVICIO,,3-nov.-17,-3.7319440841674805,40.39816665649414,3516311431,40.3982623,-3.7320796,"(40.398262299999999, -3.7320796000000001)",,15.65036330815444,"(40.398262299999999, -3.7320796000000001)"
FUE_02-03_0000000024,ZV,RETIRO,PARQUE MARTIN LUTHER KING,,443176.2633,4472237.002,ETRS89 / UTM  Zona 30N,EN SERVICIO,,3-nov.-17,-3.6696066856384277,40.398799896240234,3778875221,40.3987462,-3.6696685,"(40.398746199999998, -3.6696685000000002)",,7.94262076196453,"(40.398746199999998, -3.6696685000000002)"
FUE_06-11_0000000119,ZV,CARABANCHEL,PARQUE SAN ISIDRO,,438408.7521,4472295.082,ETRS89 / UTM  Zona 30N,EN SERVICIO,,3-nov.-17,-3.725788116455078,40.39898681640625,3657800032,40.3989127,-3.7256179,"(40.398912699999997, -3.7256179)",,16.608414102951603,"(40.398912699999997, -3.7256179)"
FUE_05-13_0000000111,ZV,PUENTE VALLECAS,C/EL BOSCO CON RAMÓN PÉREZ DE AYALA  JUNTO A COLEGIO TAJAMAR,,444933.2972,4472260.057,ETRS89 / UTM  Zona 30N,EN SERVICIO,,3-nov.-17,-3.6489052772521973,40.39912796020508,1258603112,40.3991895,-3.6490433,"(40.399189499999999, -3.6490433000000002)",,13.54745493940274,"(40.399189499999999, -3.6490433000000002)"
FB_900022,ZV,CARABANCHEL,MADRID RIO,Z.12. - SALON DE PINOS - PUENTE DE SAN ISIDRO,439102.7,4472337.3,ETRS89 / UTM  Zona 30N,EN SERVICIO,,3-nov.-17,-3.7176153659820557,40.399417877197266,2960394790,40.3994115,-3.7175535,"(40.399411499999999, -3.7175535000000002)",,5.28807064209968,"(40.399411499999999, -3.7175535000000002)"
FUE_03-10_0000000016,ZV,LATINA,CUÑA VERDE LA LATINA,CALLE ALHAMBRA Nº 29,436864.5863,4472384.941,ETRS89 / UTM  Zona 30N,FUERA DE SERVICIO,DEFICIENCIA ESTRUCTURAL,3-nov.-17,-3.7439920902252197,40.399681091308594,2960394796,40.3996352,-3.7440121,"(40.399635199999999, -3.7440121)",,5.378358895894944,"(40.399635199999999, -3.7440121)"
FUE_03-10_0000000099,ZV,LATINA,CUÑA VERDE LA LATINA,C/SESEÑA 99. DENTRO DEL PARQUE. EN EL CARRIL BICI,435248.565,4472411.557,ETRS89 / UTM  Zona 30N,EN SERVICIO,,3-nov.-17,-3.7630364894866943,40.39979553222656,4116738894,40.3998769,-3.7628733,"(40.399876900000002, -3.7628732999999999)",,16.52190177946854,"(40.399876900000002, -3.7628732999999999)"
FUE_03-10_0000000029,ZV,LATINA,CUÑA VERDE LA LATINA,CALLE CONCEJAL FRANCISCO JOSÉ JIMÉNEZ MARTÍN Nº132,436579.2398,4472429.004,ETRS89 / UTM  Zona 30N,EN SERVICIO,,3-nov.-17,-3.747358798980713,40.400054931640625,2960394820,40.4000875,-3.7471788,"(40.400087499999998, -3.7471787999999999)",,15.670875767194541,"(40.400087499999998, -3.7471787999999999)"
FUE_02-02_0000000009,ZV,ARGANZUELA,PZA. LUCA DE TENA,PZA  LUCA DE TENA N º2,441149.1029,4472614.311,ETRS89 / UTM  Zona 30N,EN SERVICIO,,3-nov.-17,-3.693527936935425,40.40205764770508,3519204115,40.4020093,-3.6935836,"(40.402009300000003, -3.6935836000000002)",,7.151654902045854,"(40.402009300000003, -3.6935836000000002)"
FUE_02-03_0000000011,ZV,RETIRO,PARQUE MARTIN LUTHER KING,C/ARREGUI Y ARUEJ  24,443306.1855,4472675.612,ETRS89 / UTM  Zona 30N,EN SERVICIO,,3-nov.-17,-3.6681149005889893,40.40275955200195,3643291471,40.402811,-3.6682853,"(40.402811, -3.6682853)",,15.525780750179981,"(40.402811, -3.6682853)"
FUE_02-02_0000000012,ZV,ARGANZUELA,ANTIGUA ESTACION SUR,C/PALOS DE LA FRONTERA Nº 29 ,441049.3744,4472708.743,ETRS89 / UTM  Zona 30N,EN SERVICIO,,3-nov.-17,-3.694711685180664,40.40290451049805,3519204120,40.4027643,-3.6947126,"(40.402764300000001, -3.6947125999999999)",,15.595281143275093,"(40.402764300000001, -3.6947125999999999)"
FUE_02-03_0000000021,ZV,RETIRO,STA. SABINA - DR. ESQUERDO,C/SANTA SABINA Nº 6,443110.9647,4472923.757,ETRS89 / UTM  Zona 30N,EN SERVICIO,,3-nov.-17,-3.6704375743865967,40.40498352050781,3100182024,40.4050503,-3.6703853,"(40.405050299999999, -3.6703853)",,8.64709328449938,"(40.405050299999999, -3.6703853)"
FB_900015,ZV,LATINA,MADRID RIO,Z.09. - SALON DE PINOS - PUENTE DE SEGOVIA,438633.9,4472963.8,ETRS89 / UTM  Zona 30N,EN SERVICIO,,3-nov.-17,-3.7231996059417725,40.405025482177734,1284090035,40.405036,-3.7230677,"(40.405036000000003, -3.7230677000000001)",,11.23308409631167,"(40.405036000000003, -3.7230677000000001)"
FUE_02-03_0000000042,VP,RETIRO,CAVANILLES Nº 46 PASAJE,CAVANILLES CV CALLE ABTAO,442748.431,4472936.672,ETRS89 / UTM  Zona 30N,EN SERVICIO,,3-nov.-17,-3.674710750579834,40.40507507324219,2500990740,40.4050934,-3.6746206,"(40.405093399999998, -3.6746205999999999)",,7.90286536600881,"(40.405093399999998, -3.6746205999999999)"
FUE_05-19_0000000092,ZV,VICÁLVARO,PARQUE DE LA CATALANA,,449872.6298,4473147.101,ETRS89 / UTM  Zona 30N,EN SERVICIO,,3-nov.-17,-3.590773105621338,40.40742874145508,3776287075,40.4073802,-3.5907803,"(40.407380199999999, -3.5907803)",,5.433358118119613,"(40.407380199999999, -3.5907803)"
FUE_02-03_0000000013,ZV,RETIRO,JARDINES CONDE CARTAGENA - ABTAO,C/ CONDE DE CARTAGENA 16,442783.5549,4473222.373,ETRS89 / UTM  Zona 30N,EN SERVICIO,,3-nov.-17,-3.6743226051330566,40.407649993896484,2494897762,40.4076385,-3.674152,"(40.407638499999997, -3.6741519999999999)",,14.505580438583527,"(40.407638499999997, -3.6741519999999999)"
FUE_03-10_0000000039,ZV,LATINA,Z.A. PARQUE CARAMUEL,CALLE CARAMUEL Nº 58,438101.7953,4473275.841,ETRS89 / UTM  Zona 30N,EN SERVICIO,,3-nov.-17,-3.7295002937316895,40.407798767089844,1464142398,40.4078603,-3.7295561,"(40.407860300000003, -3.7295560999999999)",,8.317471458735753,"(40.407860300000003, -3.7295560999999999)"
FB_000019,ZV,RETIRO,JARDINES DEL BUEN RETIRO,A. 5 · ENCINAR,442420.89,4473318.61,ETRS89 / UTM  Zona 30N,FUERA DE SERVICIO,DEFICIENCIA ESTRUCTURAL,3-nov.-17,-3.678605318069458,40.40849304199219,2495409183,40.408512,-3.6787212,"(40.408512000000002, -3.6787212)",,10.038280025369177,"(40.408512000000002, -3.6787212)"
FUE_05-14_0000000090,ZV,MORATALAZ,PARQUE  MARTALA CALLE MOLINA DE SEGURA,,445778.0333,4473303.398,ETRS89 / UTM  Zona 30N,EN SERVICIO,,3-nov.-17,-3.639040470123291,40.4085807800293,3005075470,40.4086259,-3.6390841,"(40.408625899999997, -3.6390840999999998)",,6.232130132153516,"(40.408625899999997, -3.6390840999999998)"
FB_000018,ZV,RETIRO,JARDINES DEL BUEN RETIRO,A. 17 · ÁREA CANINA,442256.56,4473420.36,ETRS89 / UTM  Zona 30N,EN SERVICIO,,3-nov.-17,-3.680551052093506,40.40939712524414,4331358252,40.4093851,-3.6804806,"(40.409385100000002, -3.6804806000000001)",,6.114750833329655,"(40.409385100000002, -3.6804806000000001)"
FUE_01-01_0000000012,ZV,CENTRO,PARQUE DE LA CORNISA,PARQUE DE LA CORNISA,439304.7466,4473492.437,ETRS89 / UTM  Zona 30N,EN SERVICIO,,3-nov.-17,-3.7153449058532715,40.40983963012695,2494901875,40.4098572,-3.7152829,"(40.409857199999998, -3.7152829000000001)",,5.603155113592486,"(40.409857199999998, -3.7152829000000001)"
FUE_05-14_0000000094,ZV,MORATALAZ,CALLE DE LITUANIA,,443924.5914,4473459.024,ETRS89 / UTM  Zona 30N,EN SERVICIO,,3-nov.-17,-3.6608967781066895,40.40986251831055,4127645075,40.4098195,-3.6609597,"(40.409819499999998, -3.6609596999999998)",,7.161782535298673,"(40.409819499999998, -3.6609596999999998)"
FUE_05-14_0000000067,ZV,MORATALAZ,PARQUE NORTE ENTRE CALLE FLORENCIO CANO Y CALLE FOBOS JUNTO A ZONA INFANTIL,,446274.1523,4473488.611,ETRS89 / UTM  Zona 30N,FUERA DE SERVICIO,VANDALISMO REITERADO,3-nov.-17,-3.633209228515625,40.410282135009766,3014927905,40.4102173,-3.6332127,"(40.410217299999999, -3.6332127000000001)",,7.2173459324173805,"(40.410217299999999, -3.6332127000000001)"
FB_000016,ZV,RETIRO,JARDINES DEL BUEN RETIRO,A. 4 · LA ROSALEDA Y ENTORNO,442221.31,4473614.46,ETRS89 / UTM  Zona 30N,EN SERVICIO,,3-nov.-17,-3.6809840202331543,40.4111442565918,3497669672,40.4111962,-3.6810031,"(40.411196199999999, -3.6810030999999999)",,5.999177281345028,"(40.411196199999999, -3.6810030999999999)"
FB_000017,ZV,RETIRO,JARDINES DEL BUEN RETIRO,A. 4 · LA ROSALEDA Y ENTORNO,442302.77,4473637.63,ETRS89 / UTM  Zona 30N,EN SERVICIO,,3-nov.-17,-3.6800262928009033,40.41135787963867,1436712948,40.4114025,-3.6800366,"(40.411402500000001, -3.6800366000000002)",,5.039135845895662,"(40.411402500000001, -3.6800366000000002)"
FUE_05-14_0000000073,ZV,MORATALAZ,PARQUE CALLE JOSÉ BERGAMIN JUNTO A CUÑA DE ODONELL,,445730.3257,4473621.754,ETRS89 / UTM  Zona 30N,EN SERVICIO,,3-nov.-17,-3.639629602432251,40.41144561767578,1436712952,40.4114121,-3.639535,"(40.4114121, -3.639535)",,8.83665848522702,"(40.4114121, -3.639535)"
FUE_01-01_0000000009,ZV,CENTRO,PLAZA DE LOS CARROS,PLAZA DE LOS CARROS,439636.4322,4473693.572,ETRS89 / UTM  Zona 30N,EN SERVICIO,,3-nov.-17,-3.7114551067352295,40.41167449951172,988701242,40.4115794,-3.7113306,"(40.411579400000001, -3.7113306000000001)",,14.935416058176846,"(40.411579400000001, -3.7113306000000001)"
FB_000017,ZV,MONCLOA-ARAVACA,CASA DE CAMPO ZONA FORESTAL,"FUENTE DE LA TORRETA DE INCENDIOS Nº2, CARRETERA",434282.2676,4473774.033,ETRS89 / UTM  Zona 30N,EN SERVICIO,,3-nov.-17,-3.7745630741119385,40.41199493408203,3179585474,40.4119376,-3.7745309,"(40.411937600000002, -3.7745308999999998)",,6.934778769380448,"(40.411937600000002, -3.7745308999999998)"
FUE_05-14_0000000084,ZV,MORATALAZ,C/FUENTE CARRANTONA ENTRE LA CALLE CIUDAD ENCANTADA Y ACCESO A O´DONELL. ANILLO CICLISTA.,,446712.5462,4473677.688,ETRS89 / UTM  Zona 30N,EN SERVICIO,,3-nov.-17,-3.628058433532715,40.41201400756836,1048614525,40.4120609,-3.6281796,"(40.4120609, -3.6281796000000002)",,11.510786050210774,"(40.4120609, -3.6281796000000002)"
FB_000071,ZV,MORATALAZ,CUÑA VERDE DE O'DONELL Y FUENTE CARRANTONA, ,446184.6355,4473754.611,ETRS89 / UTM  Zona 30N,EN SERVICIO,,3-nov.-17,-3.634286642074585,40.41267395019531,3051156414,40.4126871,-3.6342143,"(40.412687099999999, -3.6342143)",,6.29860940661386,"(40.412687099999999, -3.6342143)"
FUE_01-01_0000000017,ZV,CENTRO,PASEO DEL PRADO,PASEO DEL PRADO,441186.3865,4473797.868,ETRS89 / UTM  Zona 30N,EN SERVICIO,,3-nov.-17,-3.6931979656219482,40.412723541259766,3657652927,40.4127548,-3.6932535,"(40.412754800000002, -3.6932535)",,5.848648010848121,"(40.412754800000002, -3.6932535)"
FB_000018,ZV,MONCLOA-ARAVACA,CASA DE CAMPO ZONA FORESTAL,FUENTE DE LA GLORIETA DE LOS CAÑOS,435488.4424,4473918.96,ETRS89 / UTM  Zona 30N,EN SERVICIO,,3-nov.-17,-3.7603628635406494,40.41339111328125,1052390666,40.4134234,-3.7605708,"(40.413423399999999, -3.7605708)",,17.97179054998971,"(40.413423399999999, -3.7605708)"
FB_000020,ZV,RETIRO,JARDINES DEL BUEN RETIRO,A. 15 · CAMPO GRANDE,442187.9,4473865.75,ETRS89 / UTM  Zona 30N,EN SERVICIO,,3-nov.-17,-3.681400775909424,40.41340637207031,2527420077,40.4133699,-3.6814686,"(40.413369899999999, -3.6814686000000001)",,7.031874585959977,"(40.413369899999999, -3.6814686000000001)"
FB_000069,ZV,MORATALAZ,CUÑA VERDE DE O'DONELL Y FUENTE CARRANTONA, ,445686.2691,4473862.075,ETRS89 / UTM  Zona 30N,EN SERVICIO,,3-nov.-17,-3.640169382095337,40.41360855102539,4199356210,40.4136093,-3.6401034,"(40.413609299999997, -3.6401034000000001)",,5.5883760222223655,"(40.413609299999997, -3.6401034000000001)"
FB_000011,ZV,RETIRO,JARDINES DEL BUEN RETIRO,A. 8 · BOSQUE DEL RECUERDO Y ENTORNO,441607.814,4473929.64,ETRS89 / UTM  Zona 30N,EN SERVICIO,,3-nov.-17,-3.6882433891296387,40.4139404296875,3117313482,40.4139852,-3.6883626,"(40.413985199999999, -3.6883626)",,11.256752154141433,"(40.413985199999999, -3.6883626)"
FUE_03-10_0000000040,ZV,LATINA,PZA. STA. CRISTINA - S. CRISPÍN,PLAZA SANTA CRISTINA Nº1,438297.8271,4473984.063,ETRS89 / UTM  Zona 30N,EN SERVICIO,,3-nov.-17,-3.7272589206695557,40.41419219970703,1474140979,40.4142047,-3.7271868,"(40.414204699999999, -3.7271868000000001)",,6.2638087233445106,"(40.414204699999999, -3.7271868000000001)"
FUE_01-01_0000000021,ZV,CENTRO,PARQUE DE ATENAS,PARQUE DE ATENAS,438867.16,4474075.74,ETRS89 / UTM  Zona 30N,EN SERVICIO,,3-nov.-17,-3.720557689666748,40.415061950683594,4331337787,40.4147711,-3.7201578,"(40.414771100000003, -3.7201578)",,46.83303420418964,"(40.414771100000003, -3.7201578)"
FB_000023,ZV,RETIRO,JARDINES DEL BUEN RETIRO,A. 14 · ESTANQUE,441965.89,4474101.4,ETRS89 / UTM  Zona 30N,EN SERVICIO,,3-nov.-17,-3.6840386390686035,40.41551208496094,1591488129,40.4155784,-3.684145,"(40.415578400000001, -3.684145)",,11.641791367835195,"(40.415578400000001, -3.684145)"
FUE_01-01_0000000044,VP,CENTRO,"CIUDAD RODRIGO, JUNTO ACCESO PZA. MAYOR",CV TRAVESÍA DE BRINGAS,439879.02,4474144.04,ETRS89 / UTM  Zona 30N,EN SERVICIO,,3-nov.-17,-3.7086386680603027,40.415748596191406,5025000037,40.4157764,-3.7086889,"(40.415776399999999, -3.7086888999999998)",,5.259132465606518,"(40.415776399999999, -3.7086888999999998)"
FUE_05-19_0000000067,ZV,VICÁLVARO,CUÑA VERDE ZONA C CERCA DEL PARQUING,,448035.2759,4474131.755,ETRS89 / UTM  Zona 30N,EN SERVICIO,,3-nov.-17,-3.61250638961792,40.41618728637695,3011267671,40.4161782,-3.6124421,"(40.416178199999997, -3.6124421)",,5.537229276151554,"(40.416178199999997, -3.6124421)"
FUE_02-03_0000000041,VP,RETIRO,ALCALDE SAINZ DE BARANDA Nº 65 (EN EL BULEVAR),,443184.3429,4474203.072,ETRS89 / UTM  Zona 30N,FUERA DE SERVICIO,DEFICIENCIA ESTRUCTURAL,3-nov.-17,-3.669687032699585,40.41651153564453,2496787801,40.4165255,-3.669605,"(40.416525499999999, -3.6696049999999998)",,7.118236365623169,"(40.416525499999999, -3.6696049999999998)"
FB_000031,ZV,RETIRO,JARDINES DEL BUEN RETIRO,A. 2 · HERRERO PALACIOS,442432.11,4474225.04,ETRS89 / UTM  Zona 30N,EN SERVICIO,,3-nov.-17,-3.6785550117492676,40.41666030883789,3395833336,40.4167336,-3.6784981,"(40.416733600000001, -3.6784981000000001)",,9.469960157258301,"(40.416733600000001, -3.6784981000000001)"
FUE_02-03_0000000010,ZV,RETIRO,JARDINES Pº JOHN LENNON,C/MARQUÉS DE LOZOYA Nº 6,443511.2571,4474224.198,ETRS89 / UTM  Zona 30N,EN SERVICIO,,3-nov.-17,-3.6658358573913574,40.416725158691406,3006321252,40.416696,-3.6656627,"(40.416696000000002, -3.6656626999999999)",,15.01770086851609,"(40.416696000000002, -3.6656626999999999)"
FUE_02-03_0000000044,VP,RETIRO,ALCALDE SAINZ DE BARANDA Nº 20 (Nº 18 EN EL BULEVAR),,442625.9453,4474250.381,ETRS89 / UTM  Zona 30N,EN SERVICIO,,3-nov.-17,-3.6762726306915283,40.416900634765625,2496787803,40.4169324,-3.6761411,"(40.4169324, -3.6761411000000002)",,11.685188767913784,"(40.4169324, -3.6761411000000002)"
FB_000033,ZV,MONCLOA-ARAVACA,CASA DE CAMPO ZONA URBANA,FUENTE DE LOS NEVEROS (PASEO DE CASTAÑOS),437608.5701,4474326.113,ETRS89 / UTM  Zona 30N,EN SERVICIO,,3-nov.-17,-3.7354159355163574,40.41722106933594,1435775507,40.4172579,-3.7352657,"(40.417257900000003, -3.7352656999999998)",,13.365427807654259,"(40.417257900000003, -3.7352656999999998)"
FB_000026,ZV,RETIRO,JARDINES DEL BUEN RETIRO,A. 14 · ESTANQUE,442235.03,4474305.95,ETRS89 / UTM  Zona 30N,EN SERVICIO,,3-nov.-17,-3.6808853149414062,40.41737365722656,3497610236,40.4172923,-3.680829,"(40.4172923, -3.6808290000000001)",,10.228739767485948,"(40.4172923, -3.6808290000000001)"
FB_000034,ZV,MONCLOA-ARAVACA,CASA DE CAMPO ZONA URBANA,FUENTE DEL TRIANGULO,437726.5995,4474366.658,ETRS89 / UTM  Zona 30N,EN SERVICIO,,3-nov.-17,-3.7340288162231445,40.41759490966797,1418447314,40.4176052,-3.7338908,"(40.417605199999997, -3.7338908000000002)",,11.74324895755016,"(40.417605199999997, -3.7338908000000002)"
FB_000031,ZV,MONCLOA-ARAVACA,CASA DE CAMPO ZONA URBANA,FUENTE Nº1 DEL BOSQUE DEL RUISEÑOR,437379.459,4474406.618,ETRS89 / UTM  Zona 30N,EN SERVICIO,,3-nov.-17,-3.738124132156372,40.417930603027344,3150449393,40.4180163,-3.7380824,"(40.418016299999998, -3.7380824000000001)",,10.16576370009033,"(40.418016299999998, -3.7380824000000001)"
FB_000027,ZV,MONCLOA-ARAVACA,CASA DE CAMPO ZONA URBANA,FUENTE Nº5 DEL BOSQUE DEL RUISEÑOR,436981.6769,4474426.109,ETRS89 / UTM  Zona 30N,EN SERVICIO,,3-nov.-17,-3.742814540863037,40.41807556152344,3150449394,40.4181394,-3.742834,"(40.418139400000001, -3.7428340000000002)",,7.289209145878036,"(40.418139400000001, -3.7428340000000002)"
FB_000035,ZV,MONCLOA-ARAVACA,CASA DE CAMPO ZONA URBANA,FUENTE DEL CENTRO DE INFORMACION,438062.4403,4474429.841,ETRS89 / UTM  Zona 30N,EN SERVICIO,,3-nov.-17,-3.730076551437378,40.418190002441406,4331338091,40.4185785,-3.7300601,"(40.418578500000002, -3.7300601000000002)",,43.23357935218741,"(40.418578500000002, -3.7300601000000002)"
FUE_02-03_0000000039,VP,RETIRO,IBIZA Nº 16 ( EN EL BULEVAR),,442610.5469,4474400.482,ETRS89 / UTM  Zona 30N,EN SERVICIO,,3-nov.-17,-3.6764676570892334,40.418251037597656,1917865206,40.4182602,-3.6763924,"(40.418260199999999, -3.6763924000000001)",,6.453746477970606,"(40.418260199999999, -3.6763924000000001)"
FB_000004,ZV,RETIRO,JARDINES DEL BUEN RETIRO,A. 12 · EL POVAR,441846.65,4474411.3,ETRS89 / UTM  Zona 30N,EN SERVICIO,,3-nov.-17,-3.6854724884033203,40.418296813964844,2496787804,40.4183443,-3.6855094,"(40.418344300000001, -3.6855093999999999)",,6.137273663103652,"(40.418344300000001, -3.6855093999999999)"
FUE_02-03_0000000043,VP,RETIRO,ALCALA Nº 50,,441316.5538,4474539.499,ETRS89 / UTM  Zona 30N,EN SERVICIO,,3-nov.-17,-3.691732406616211,40.41941452026367,2928885261,40.4194271,-3.6916391,"(40.4194271, -3.6916391000000002)",,8.024010110057755,"(40.4194271, -3.6916391000000002)"
FB_000042,ZV,MONCLOA-ARAVACA,CASA DE CAMPO ZONA URBANA,FUENTE DEL PLATANO GORDO (EN PASEO DE LA TORRECILLA),437762.0874,4474704.647,ETRS89 / UTM  Zona 30N,EN SERVICIO,,3-nov.-17,-3.7336435317993164,40.4206428527832,1052390709,40.4206483,-3.7335474,"(40.420648300000003, -3.7335474)",,8.162675887785324,"(40.420648300000003, -3.7335474)"
FUE_04-20_0000000064,ZV,SAN BLAS,ARCOS DE JALON - SAN ROMAN DEL VALLE,"SAN ROMAN DEL VALLE, 6",447247.85,4474706.77,ETRS89 / UTM  Zona 30N,EN SERVICIO,,3-nov.-17,-3.6218349933624268,40.42131805419922,3429023897,40.4213667,-3.6218804,"(40.4213667, -3.6218804000000002)",,6.637659813275252,"(40.4213667, -3.6218804000000002)"
FUE_01-09_0000000001,ZV,MONCLOA-ARAVACA,PLAZA ESPAÑA,PLAZA ESPAÑA,439503.9271,4474906.253,ETRS89 / UTM  Zona 30N,EN SERVICIO,,3-nov.-17,-3.713131904602051,40.42258834838867,3500567653,40.4225917,-3.7129495,"(40.422591699999998, -3.7129495000000001)",,15.449539576733176,"(40.422591699999998, -3.7129495000000001)"
FB_000066,ZV,SALAMANCA,QUINTA DE LA FUENTE DEL BERRO,A. 7 · PEÑASCALES,443752.2,4474947.14,ETRS89 / UTM  Zona 30N,EN SERVICIO,,3-nov.-17,-3.663059949874878,40.423255920410156,297682006,40.4232182,-3.6630123,"(40.423218200000001, -3.6630123000000001)",,5.820738429140452,"(40.423218200000001, -3.6630123000000001)"
FUE_02-04_0000000038,ZV,SALAMANCA,AVDA FELIPE II Nº 5,AVDA FELIPE II Nº 5,442709.5834,4475055.859,ETRS89 / UTM  Zona 30N,EN SERVICIO,,3-nov.-17,-3.6753594875335693,40.424163818359375,4406606777,40.4242191,-3.6753988,"(40.424219100000002, -3.6753988)",,6.99196268962785,"(40.424219100000002, -3.6753988)"
FUE_02-04_0000000025,ZV,SALAMANCA,PZA. DE DALI,,442884.628,4475062.161,ETRS89 / UTM  Zona 30N,EN SERVICIO,,3-nov.-17,-3.6732966899871826,40.424232482910156,3463021602,40.4242798,-3.6732824,"(40.424279800000001, -3.6732824000000002)",,5.40020099586611,"(40.424279800000001, -3.6732824000000002)"
FUE_04-20_0000000019,ZV,SAN BLAS,Pº GINEBRA,"GINEBRA, 13",448647.5402,4475062.395,ETRS89 / UTM  Zona 30N,EN SERVICIO,,3-nov.-17,-3.60536527633667,40.42461013793945,1245970134,40.424851,-3.605743,"(40.424850999999997, -3.6057429999999999)",,41.72050099464886,"(40.424850999999997, -3.6057429999999999)"
FB_000045,ZV,MONCLOA-ARAVACA,CASA DE CAMPO ZONA URBANA,FUENTE DE LA GLORIETA DE LAS MORERAS,437770.815,4475163.962,ETRS89 / UTM  Zona 30N,EN SERVICIO,,3-nov.-17,-3.7335855960845947,40.424781799316406,1052390720,40.4248716,-3.7335291,"(40.424871600000003, -3.7335291000000002)",,11.074614657082504,"(40.424871600000003, -3.7335291000000002)"
FUE_01-01_0000000004,ZV,CENTRO,PLAZA VILLA DE PARIS,PLAZA VILLA DE PARIS,441281.789,4475192.9,ETRS89 / UTM  Zona 30N,EN SERVICIO,,3-nov.-17,-3.69220232963562,40.425296783447266,4237288297,40.4254296,-3.6922473,"(40.425429600000001, -3.6922473)",,15.255517742356638,"(40.425429600000001, -3.6922473)"
FUE_04-20_0000000085,ZV,SAN BLAS,PARQUE DE SAN BLAS - EL PARAISO,"ARCENTALES, 2",446875.5343,4475199.49,ETRS89 / UTM  Zona 30N,EN SERVICIO,,3-nov.-17,-3.626264810562134,40.42573165893555,1325487155,40.4257093,-3.6263327,"(40.425709300000001, -3.6263326999999999)",,6.2631460028179475,"(40.425709300000001, -3.6263326999999999)"
FUE_04-20_0000000095,ZV,SAN BLAS,PARQUE DE SAN BLAS - EL PARAISO,"AJOFRIN, 2",446936.1148,4475208.495,ETRS89 / UTM  Zona 30N,EN SERVICIO,,3-nov.-17,-3.625551462173462,40.425819396972656,2623339508,40.4255948,-3.6259996,"(40.425594799999999, -3.6259996000000001)",,45.42920263258748,"(40.425594799999999, -3.6259996000000001)"
FUE_04-15_0000000097,ZV,CIUDAD LINEAL,JOSE ARCONES GIL,"JOSE ARCONES GIL, 126",446320.2406,4475315.161,ETRS89 / UTM  Zona 30N,EN SERVICIO,,3-nov.-17,-3.6328201293945312,40.42673873901367,3394190477,40.4268174,-3.6328736,"(40.426817399999997, -3.6328735999999999)",,9.85111989256935,"(40.426817399999997, -3.6328735999999999)"
FUE_02-04_0000000040,ZV,SALAMANCA,PARQUE RESIDENCIAL ISABEL II,CALLE RAMÓN AGUINAGA 2,443585.18,4475363.43,ETRS89 / UTM  Zona 30N,EN SERVICIO,,3-nov.-17,-3.6650655269622803,40.42699432373047,4332345244,40.4267792,-3.6654199,"(40.426779199999999, -3.6654198999999998)",,38.37694719684319,"(40.426779199999999, -3.6654198999999998)"
FUE_01-01_0000000001,ZV,CENTRO,PLAZA COMENDADORAS,PLAZA COMENDADORAS,439892.4997,4475419.798,ETRS89 / UTM  Zona 30N,EN SERVICIO,,3-nov.-17,-3.7086002826690674,40.427242279052734,2861771473,40.4272963,-3.708589,"(40.427296300000002, -3.7085889999999999)",,6.084013709579818,"(40.427296300000002, -3.7085889999999999)"
FUE_03-09_0000000030,ZV,MONCLOA-ARAVACA,PARQUE DE LA BOMBILLA,JUNTOO A JUEGOS INFANTILES,438260.9317,4475477.582,ETRS89 / UTM  Zona 30N,EN SERVICIO,,3-nov.-17,-3.7278387546539307,40.427642822265625,1916805095,40.427687,-3.7278674,"(40.427686999999999, -3.7278674000000001)",,5.4796907228486615,"(40.427686999999999, -3.7278674000000001)"
FB_000048,ZV,MONCLOA-ARAVACA,CASA DE CAMPO ZONA FORESTAL,FUENTE DE CUATRO GRIFOS DEL PASEO DE LOS PIÐONEROS,437554.7235,4475502.2,ETRS89 / UTM  Zona 30N,EN SERVICIO,,3-nov.-17,-3.736166000366211,40.42781448364258,3150808039,40.4276085,-3.7357245,"(40.427608499999998, -3.7357244999999999)",,43.843423698943646,"(40.427608499999998, -3.7357244999999999)"
FB_000049,ZV,MONCLOA-ARAVACA,CASA DE CAMPO ZONA FORESTAL,FUENTE METALICA DEL PASEO DE LOS PIÑONEROS,437513.9287,4475552.651,ETRS89 / UTM  Zona 30N,EN SERVICIO,,3-nov.-17,-3.73665189743042,40.42826461791992,1052390741,40.4282947,-3.7365898,"(40.428294700000002, -3.7365898)",,6.232002457357233,"(40.428294700000002, -3.7365898)"
FUE_04-15_0000000088,ZV,CIUDAD LINEAL,AVDA. MARQUES DE CORBERA - SAN CLODOALDO,"HERMANOS GOMEZ, 50",444929.6116,4475508.917,ETRS89 / UTM  Zona 30N,EN SERVICIO,,3-nov.-17,-3.6492300033569336,40.42839431762695,3497491528,40.4284446,-3.6491897,"(40.428444599999999, -3.6491897)",,6.551551491730955,"(40.428444599999999, -3.6491897)"
FUE_01-07_0000000007,ZV,CHAMBERÍ,"PO CASTELLANA, DE LA Nº:19",PASEO DE LA CASTELLANA IV,441497.1641,4475576.983,ETRS89 / UTM  Zona 30N,EN SERVICIO,,3-nov.-17,-3.6896989345550537,40.42877197265625,4330672719,40.4286719,-3.6893863,"(40.428671899999998, -3.6893862999999998)",,28.71485641890308,"(40.428671899999998, -3.6893862999999998)"
FUE_02-04_0000000039,ZV,SALAMANCA,PARQUE SANCHO DÁVILA,ENTRADA POR PLAZA AMÉRICA ESPAÑOLA,443883.2367,4475591.451,ETRS89 / UTM  Zona 30N,EN SERVICIO,,3-nov.-17,-3.661572217941284,40.42906951904297,4332345246,40.4293424,-3.6619985,"(40.429342400000003, -3.6619985000000002)",,47.15747757231568,"(40.429342400000003, -3.6619985000000002)"
FUE_02-04_0000000024,ZV,SALAMANCA,PARQUE DE MARIA EVA DUARTE DE PERON,,443271.7044,4475605.179,ETRS89 / UTM  Zona 30N,EN SERVICIO,,3-nov.-17,-3.6687824726104736,40.42914962768555,1474140980,40.4290608,-3.6687341,"(40.429060800000002, -3.6687341)",,10.695196973049631,"(40.429060800000002, -3.6687341)"
FB_000057,ZV,MONCLOA-ARAVACA,CASA DE CAMPO ZONA FORESTAL,FUENTE DE LA CARRETERA DE GARAVITAS (CURVA DE LA MUERTE),437410.3293,4475762.099,ETRS89 / UTM  Zona 30N,EN SERVICIO,,3-nov.-17,-3.737893581390381,40.430145263671875,1052390702,40.4301741,-3.737845,"(40.430174100000002, -3.7378450000000001)",,5.215853228968525,"(40.430174100000002, -3.7378450000000001)"
FUE_04-15_0000000031,ZV,CIUDAD LINEAL,PAR VITAL AZA - CAROLINA CORONADO,"CAROLINA CORONADO, 26",445341.0006,4475751.13,ETRS89 / UTM  Zona 30N,EN SERVICIO,,3-nov.-17,-3.6444010734558105,40.43060302734375,4330668671,40.4305461,-3.6445607,"(40.430546100000001, -3.6445607)",,14.924455176188578,"(40.430546100000001, -3.6445607)"
FUE_02-04_0000000026,ZV,SALAMANCA,JARDIN DE LA VIRGEN DEL PILAR,C/GENERAL PARDIÑAS CV C/JUAN BRAVO,442498.1789,4475963.332,ETRS89 / UTM  Zona 30N,EN SERVICIO,,3-nov.-17,-3.67793345451355,40.43232345581055,2823633513,40.4323957,-3.6779632,"(40.432395700000001, -3.6779632000000002)",,8.420832113228155,"(40.432395700000001, -3.6779632000000002)"
FUE_04-20_0000000090,ZV,SAN BLAS,PARQUE DE SAN BLAS - EL PARAISO,"ALBAIDA, 34",447560.5002,4476065.9,ETRS89 / UTM  Zona 30N,EN SERVICIO,,3-nov.-17,-3.6182618141174316,40.4335823059082,1325487923,40.4336193,-3.618304,"(40.433619299999997, -3.6183040000000002)",,5.448523450839155,"(40.433619299999997, -3.6183040000000002)"
FB_000096,ZV,MONCLOA-ARAVACA,CASA DE CAMPO ZONA FORESTAL,FUENTE DE LA SUBESTACIÓN,437067.9674,4476154.004,ETRS89 / UTM  Zona 30N,EN SERVICIO,,3-nov.-17,-3.7419683933258057,40.43364715576172,4332355414,40.4337568,-3.7420786,"(40.433756799999998, -3.7420786000000001)",,15.355057867884796,"(40.433756799999998, -3.7420786000000001)"
FB_000061,ZV,MONCLOA-ARAVACA,CASA DE CAMPO ZONA FORESTAL,FUENTE DEL ESTANQUE DEL REPARTIDOR,436756.5968,4476178.079,ETRS89 / UTM  Zona 30N,EN SERVICIO,,3-nov.-17,-3.7456417083740234,40.433841705322266,4403559003,40.4338592,-3.7458415,"(40.433859200000001, -3.7458415)",,17.02600899319763,"(40.433859200000001, -3.7458415)"
FUE_04-20_0000000093,ZV,SAN BLAS,AMPL. PARQUE EL PARAISO,"ALBAIDA, 94",447970.4677,4476120.33,ETRS89 / UTM  Zona 30N,EN SERVICIO,,3-nov.-17,-3.6134328842163086,40.43409729003906,1325488008,40.434057,-3.6133962,"(40.434057000000003, -3.6133961999999999)",,5.452289637670185,"(40.434057000000003, -3.6133961999999999)"
FUE_04-15_0000000056,ZV,CIUDAD LINEAL,PZA. VIRGEN DEL CORO,"VIRGEN DE LA ROCA, 6",444202.6708,4476149.887,ETRS89 / UTM  Zona 30N,EN SERVICIO,,3-nov.-17,-3.65785551071167,40.434120178222656,3510131454,40.4341935,-3.6578591,"(40.434193499999999, -3.6578591)",,8.160965898353234,"(40.434193499999999, -3.6578591)"
FUE_04-15_0000000058,ZV,CIUDAD LINEAL,PZA. VIRGEN DE LA ROCA,"VIRGEN DE LA ROCA, 20",444227.5389,4476292.391,ETRS89 / UTM  Zona 30N,EN SERVICIO,,3-nov.-17,-3.6575748920440674,40.43540573120117,3417769817,40.4354484,-3.6576251,"(40.435448399999999, -3.6576251000000002)",,6.371065128872701,"(40.435448399999999, -3.6576251000000002)"
FUE_04-15_0000000087,ZV,CIUDAD LINEAL,ARTURO SORIA,"ARTURO SORIA, 10",445844.051,4476658.861,ETRS89 / UTM  Zona 30N,EN SERVICIO,,3-nov.-17,-3.6385481357574463,40.438812255859375,3494845457,40.4388631,-3.6384911,"(40.438863099999999, -3.6384911)",,7.435990059090396,"(40.438863099999999, -3.6384911)"
FUE_04-15_0000000086,ZV,CIUDAD LINEAL,ARTURO SORIA,"ARTURO SORIA, 18",445769.3566,4476796.655,ETRS89 / UTM  Zona 30N,EN SERVICIO,,3-nov.-17,-3.6394405364990234,40.4400520324707,3413251898,40.4400674,-3.6394996,"(40.440067399999997, -3.6394996000000002)",,5.283977775793328,"(40.440067399999997, -3.6394996000000002)"
FB_000044,ZV,SAN BLAS,QUINTA DE LOS MOLINOS,ALMENDROS POLIDEPORTIVO,446881.84,4476942.01,ETRS89 / UTM  Zona 30N,EN SERVICIO,,3-nov.-17,-3.626336097717285,40.44143295288086,2981348699,40.4413999,-3.6263888,"(40.4413999, -3.6263888)",,5.780891427280177,"(40.4413999, -3.6263888)"
FUE_02-04_0000000017,ZV,SALAMANCA,BERLIN - BRISTOL,C/ BERLÍN Nº 8,443859.9013,4477044.378,ETRS89 / UTM  Zona 30N,EN SERVICIO,,3-nov.-17,-3.661975622177124,40.44215393066406,3984152815,40.4421918,-3.6619012,"(40.442191800000003, -3.6619012)",,7.578219385821064,"(40.442191800000003, -3.6619012)"
FUE_04-20_0000000075,ZV,SAN BLAS,PAR ESFINGE,"NECTAR, 32",448220.6976,4477097.078,ETRS89 / UTM  Zona 30N,EN SERVICIO,,3-nov.-17,-3.610562562942505,40.44291305541992,4215726084,40.442978,-3.6105963,"(40.442977999999997, -3.6105963000000001)",,7.767573967189267,"(40.442977999999997, -3.6105963000000001)"
FUE_02-05_0000000027,ZV,CHAMARTIN,"PADRE CLARET, 7-9",,443569.9173,4477460.164,ETRS89 / UTM  Zona 30N,EN SERVICIO,,3-nov.-17,-3.6654317378997803,40.44588088989258,3985895003,40.4459275,-3.6654321,"(40.445927500000003, -3.6654320999999999)",,5.1843583114464,"(40.445927500000003, -3.6654320999999999)"
FUE_04-15_0000000083,ZV,CIUDAD LINEAL,ARTURO SORIA,"ARTURO SORIA, 77",445044.1756,4477457.359,ETRS89 / UTM  Zona 30N,FUERA DE SERVICIO,NO APTA CONSUMO,3-nov.-17,-3.648047685623169,40.445953369140625,3439157637,40.4459121,-3.6480075,"(40.445912100000001, -3.6480074999999998)",,5.71317729187882,"(40.445912100000001, -3.6480074999999998)"
FB_000043,ZV,SAN BLAS,QUINTA DE LOS MOLINOS,CIPRESES ,446569.84,4477512.41,ETRS89 / UTM  Zona 30N,EN SERVICIO,,3-nov.-17,-3.6300628185272217,40.44654846191406,3973699909,40.4466327,-3.6299745,"(40.446632700000002, -3.6299744999999999)",,11.98636378063842,"(40.446632700000002, -3.6299744999999999)"
FUE_04-15_0000000082,ZV,CIUDAD LINEAL,ARTURO SORIA,"ARTURO SORIA, 120",444886.0552,4477685.047,ETRS89 / UTM  Zona 30N,EN SERVICIO,,3-nov.-17,-3.6499319076538086,40.447994232177734,3457872687,40.448036,-3.6499589,"(40.448036000000002, -3.6499589000000001)",,5.177083627678639,"(40.448036000000002, -3.6499589000000001)"
FUE_04-15_0000000119,ZV,CIUDAD LINEAL,COL. PARQUE SAN JUAN BAUTISTA ,"TORRELAGUNA, 81",444261.5751,4477748.476,ETRS89 / UTM  Zona 30N,EN SERVICIO,,3-nov.-17,-3.657301187515259,40.448524475097656,4121646838,40.4485004,-3.6572498,"(40.4485004, -3.6572498000000002)",,5.107742348354994,"(40.4485004, -3.6572498000000002)"
FUE_02-05_0000000050,ZV,CHAMARTIN,PARQUE DE BERLIN,C/SAN ERNESTO Nº 10 ,442699.514,4477862.009,ETRS89 / UTM  Zona 30N,EN SERVICIO,,3-nov.-17,-3.6757311820983887,40.449440002441406,2563299638,40.4494926,-3.6757788,"(40.449492599999999, -3.6757787999999998)",,7.10418488758862,"(40.449492599999999, -3.6757787999999998)"
FUE_04-20_0000000007,ZV,SAN BLAS,CIUDAD PEGASO - Z.A.+ Z.F.,"UNO, 4",449668.6039,4477823.171,ETRS89 / UTM  Zona 30N,EN SERVICIO,,3-nov.-17,-3.593547821044922,40.44954299926758,3506636120,40.4495739,-3.5934935,"(40.449573899999997, -3.5934935000000001)",,5.740406526166083,"(40.449573899999997, -3.5934935000000001)"
FUE_02-05_0000000041,ZV,CHAMARTIN,PARQUE DE BERLIN,C/DOCTOR MARCO CORERA Nº2,442630.7821,4477952.86,ETRS89 / UTM  Zona 30N,EN SERVICIO,,3-nov.-17,-3.6765499114990234,40.45025634765625,2563299640,40.4501878,-3.6765324,"(40.450187800000002, -3.6765324000000001)",,7.767030706537045,"(40.450187800000002, -3.6765324000000001)"
FUE_04-15_0000000081,ZV,CIUDAD LINEAL,ARTURO SORIA,"ARTURO SORIA, 130",444729.7452,4477961.051,ETRS89 / UTM  Zona 30N,EN SERVICIO,,3-nov.-17,-3.651799201965332,40.450469970703125,3439157638,40.4505198,-3.6518108,"(40.450519800000002, -3.6518107999999998)",,5.628589405736129,"(40.450519800000002, -3.6518107999999998)"
FUE_04-15_0000000023,ZV,CIUDAD LINEAL,Z.V. COL. PARQUE SAN JUAN BAUTISTA,"CIDAMON, 11",444314.7773,4478022.726,ETRS89 / UTM  Zona 30N,EN SERVICIO,,3-nov.-17,-3.656697988510132,40.45100021362305,4065603213,40.4510423,-3.6567279,"(40.451042299999997, -3.6567278999999999)",,5.3218570206510405,"(40.451042299999997, -3.6567278999999999)"
FUE_02-05_0000000069,VP,CHAMARTIN,PL VIRGEN DE GUADALUPANA Nº 1,,442778.1837,4478090.399,ETRS89 / UTM  Zona 30N,FUERA DE SERVICIO,DEFICIENCIA ESTRUCTURAL,3-nov.-17,-3.6748242378234863,40.45150375366211,2563304847,40.4514114,-3.6749166,"(40.451411399999998, -3.6749166)",,12.90846493417082,"(40.451411399999998, -3.6749166)"
FUE_02-05_0000000014,ZV,CHAMARTIN,PARQUE FELIX RGUEZ. DE LA FUENTE,CALLE DEL PADRE CLARET N º32,443682.2042,4478192.976,ETRS89 / UTM  Zona 30N,EN SERVICIO,,3-nov.-17,-3.664172649383545,40.452491760253906,4149600025,40.4525253,-3.6642268,"(40.452525299999998, -3.6642267999999998)",,5.909469925591954,"(40.452525299999998, -3.6642267999999998)"
FUE_04-21_0000000038,ZV,BARAJAS,PARQUE BIOSALUDABLE,"ALAMEDA DE OSUNA, 50",449340.3151,4478212.024,ETRS89 / UTM  Zona 30N,FUERA DE SERVICIO,NO APTA CONSUMO,3-nov.-17,-3.597450017929077,40.453025817871094,3657771745,40.4531113,-3.5973653,"(40.453111300000003, -3.5973652999999999)",,11.908451829657906,"(40.453111300000003, -3.5973652999999999)"
FUE_04-16_0000000088,ZV,HORTALEZA,A.V.C. AVDA. DE LOGROÑO - M-40 Z.F.N.C.,"LUIS DE LA MATA, 41",447959.6427,4478515.995,ETRS89 / UTM  Zona 30N,EN SERVICIO,,3-nov.-17,-3.6137568950653076,40.45568084716797,310801499,40.455712,-3.6138003,"(40.455711999999998, -3.6138002999999999)",,5.049833861169336,"(40.455711999999998, -3.6138002999999999)"
FB_120025,ZV,BARAJAS,JUAN CARLOS I,B.05 · CABALLÓN 1,448904.25,4478660.53,ETRS89 / UTM  Zona 30N,EN SERVICIO,,3-nov.-17,-3.602628469467163,40.45703887939453,2981319370,40.4570845,-3.6025607,"(40.457084500000001, -3.6025607000000002)",,7.657842766398223,"(40.457084500000001, -3.6025607000000002)"
FB_120032,ZV,BARAJAS,JUAN CARLOS I,B.10 · PINAR DE VERANO,448535.67,4478696.2,ETRS89 / UTM  Zona 30N,EN SERVICIO,,3-nov.-17,-3.606978416442871,40.45733642578125,480437568,40.4573285,-3.6068901,"(40.457328500000003, -3.6068901000000002)",,7.526105959377286,"(40.457328500000003, -3.6068901000000002)"
FUE_03-09_0000000109,VP,MONCLOA-ARAVACA,CL FRANCOS RODRIGUEZ Nº:106,,439323.0252,4478918.503,ETRS89 / UTM  Zona 30N,EN SERVICIO,,3-nov.-17,-3.7156474590301514,40.45872116088867,5050304121,40.4587521,-3.7155952,"(40.458752099999998, -3.7155952000000001)",,5.603734892642969,"(40.458752099999998, -3.7155952000000001)"
FUE_04-15_0000000077,ZV,CIUDAD LINEAL,ARTURO SORIA,"ARTURO SORIA, 198",444087.9235,4478902.225,ETRS89 / UTM  Zona 30N,EN SERVICIO,,3-nov.-17,-3.6594507694244385,40.45890808105469,3785145940,40.4589519,-3.659516,"(40.458951900000002, -3.659516)",,7.364020327836055,"(40.458951900000002, -3.659516)"
FUE_04-21_0000000005,ZV,BARAJAS,PARQUE MARI LUZ NAJERA,"BERGANTIN, 26",450596.1829,4478865.053,ETRS89 / UTM  Zona 30N,FUERA DE SERVICIO,DEFICIENCIA ESTRUCTURAL,3-nov.-17,-3.582690715789795,40.458984375,1932126801,40.4590453,-3.582668,"(40.4590453, -3.582668)",,7.043866939094326,"(40.4590453, -3.582668)"
FUE_03-09_0000000110,VP,MONCLOA-ARAVACA,CL FRANCOS RODRIGUEZ Nº:83,,439076.0105,4478997.952,ETRS89 / UTM  Zona 30N,EN SERVICIO,,3-nov.-17,-3.7185683250427246,40.459415435791016,1802463898,40.4594691,-3.7186728,"(40.4594691, -3.7186727999999998)",,10.667710355404322,"(40.4594691, -3.7186727999999998)"
FB_120019,ZV,BARAJAS,JUAN CARLOS I,B.01 · 4 ESTACIONES,449577.77,4479060.02,ETRS89 / UTM  Zona 30N,EN SERVICIO,,3-nov.-17,-3.594717025756836,40.46067810058594,2981324452,40.4607315,-3.5947597,"(40.460731500000001, -3.5947597)",,6.951166748216373,"(40.460731500000001, -3.5947597)"
FUE_04-16_0000000049,ZV,HORTALEZA,PARQUE LOS LLANOS,"DIONISIO INCA YUPANQUI, 23",446428.3291,4479177.172,ETRS89 / UTM  Zona 30N,EN SERVICIO,,3-nov.-17,-3.6318717002868652,40.4615364074707,1240306089,40.4614781,-3.631873,"(40.461478100000001, -3.6318730000000001)",,6.486254244526934,"(40.461478100000001, -3.6318730000000001)"
FB_120011,ZV,BARAJAS,JUAN CARLOS I,D.04 · TRES CULTURAS,448753.85,4479516.85,ETRS89 / UTM  Zona 30N,EN SERVICIO,,3-nov.-17,-3.604471445083618,40.464744567871094,485099119,40.4646903,-3.6044438,"(40.464690300000001, -3.6044437999999999)",,6.47349181161268,"(40.464690300000001, -3.6044437999999999)"
FUE_01-06_0000000064,VP,TETUÁN,"CL MIOSOTIS, DEL Nº:24",,440653.09,4479585.586,ETRS89 / UTM  Zona 30N,EN SERVICIO,,3-nov.-17,-3.700023651123047,40.46482467651367,2946232762,40.4648181,-3.6999539,"(40.464818100000002, -3.6999539000000001)",,5.947593708428186,"(40.464818100000002, -3.6999539000000001)"
FB_120015,ZV,BARAJAS,JUAN CARLOS I,D.05 · PINAR DE LAS TRES CULTURAS,448892.4,4479533.32,ETRS89 / UTM  Zona 30N,EN SERVICIO,,3-nov.-17,-3.6028385162353516,40.464900970458984,3387715379,40.4649081,-3.6027729,"(40.464908100000002, -3.6027729000000002)",,5.6088739383683635,"(40.464908100000002, -3.6027729000000002)"
FUE_01-06_0000000070,VP,TETUÁN,CL GARCI-NUÑO Nº:4,C/ GARCI-NUÑO C/V C/ ANTONIO LANZUELA,440542.6342,4479762.845,ETRS89 / UTM  Zona 30N,EN SERVICIO,,3-nov.-17,-3.701343059539795,40.46641540527344,2946232764,40.4664598,-3.7012578,"(40.466459800000003, -3.7012578)",,8.742601202884401,"(40.466459800000003, -3.7012578)"
FUE_02-05_0000000068,VP,CHAMARTIN,"C/ MATEO INURRIA, Nº 19",,442019.6019,4479846.52,ETRS89 / UTM  Zona 30N,EN SERVICIO,,3-nov.-17,-3.683929920196533,40.46726989746094,297655027,40.4672427,-3.6839934,"(40.4672427, -3.6839933999999999)",,6.1647946398192985,"(40.4672427, -3.6839933999999999)"
FUE_04-16_0000000042,ZV,HORTALEZA,PZA. GOLMAYO,"GOLMAYO, 17",443882.6755,4479832.98,ETRS89 / UTM  Zona 30N,EN SERVICIO,,3-nov.-17,-3.6619534492492676,40.46727752685547,3964214899,40.4673012,-3.6618917,"(40.467301200000001, -3.6618917)",,5.851063973258313,"(40.467301200000001, -3.6618917)"
FUE_04-16_0000000121,ZV,HORTALEZA,PARQUE SAN LORENZO,"MACUAJE, 5",446378.2271,4480083.578,ETRS89 / UTM  Zona 30N,EN SERVICIO,,3-nov.-17,-3.6325392723083496,40.46969985961914,1518829871,40.4695759,-3.6326981,"(40.469575900000002, -3.6326980999999998)",,19.253850635081097,"(40.469575900000002, -3.6326980999999998)"
FUE_04-16_0000000003,ZV,HORTALEZA,JARDIN BUCARAMANGA,"BUCARAMANGA, 2",445826.7418,4480391.514,ETRS89 / UTM  Zona 30N,FUERA DE SERVICIO,DEFICIENCIA ESTRUCTURAL,3-nov.-17,-3.639070749282837,40.47243881225586,3986836405,40.4724428,-3.6389914,"(40.472442800000003, -3.6389914000000001)",,6.728524078936731,"(40.472442800000003, -3.6389914000000001)"
FUE_01-06_0000000024,ZV,TETUÁN,AVDA. ASTURIAS-PERGOLAS,AVDA. ASTURIAS-PERGOLAS,440663.5598,4480472.609,ETRS89 / UTM  Zona 30N,EN SERVICIO,,3-nov.-17,-3.6999831199645996,40.472816467285156,3961357666,40.4728058,-3.6999045,"(40.472805800000003, -3.6999045000000002)",,6.7571260568687785,"(40.472805800000003, -3.6999045000000002)"
FUE_04-16_0000000087,ZV,HORTALEZA,CUBIERTA SAN LORENZO,"CHUCURI, 12",446280.6609,4480492.078,ETRS89 / UTM  Zona 30N,EN SERVICIO,,3-nov.-17,-3.6337246894836426,40.47337341308594,1448407559,40.4734154,-3.6336507,"(40.4734154, -3.6336507)",,7.810292470411505,"(40.4734154, -3.6336507)"
FUE_03-08_0000000053,ZV,FUENCARRAL-EL PARDO,POL. 24 V.V.V.,C/JUAN SÁNCHEZ C/V C/CÉSAR MANRIQUE,438929.6158,4480618.053,ETRS89 / UTM  Zona 30N,EN SERVICIO,,3-nov.-17,-3.7204506397247314,40.4739990234375,2946271316,40.4735705,-3.720387,"(40.473570500000001, -3.7203870000000001)",,47.96624423276525,"(40.473570500000001, -3.7203870000000001)"
FUE_03-08_0000000138,VP,FUENCARRAL-EL PARDO,AV MONFORTE DE LEMOS Nº:195,,438890.8276,4480795.564,ETRS89 / UTM  Zona 30N,EN SERVICIO,,3-nov.-17,-3.7209253311157227,40.4755973815918,2946271319,40.4754267,-3.7209654,"(40.4754267, -3.7209653999999999)",,19.284599250203108,"(40.4754267, -3.7209653999999999)"
FUE_03-08_0000000127,ZV,FUENCARRAL-EL PARDO,PARQUE DE LA ALCAZABA,C/MELCHOR FDEZ. ALMAGOR Nº52 ,440217.9924,4480814.83,ETRS89 / UTM  Zona 30N,EN SERVICIO,,3-nov.-17,-3.7052712440490723,40.475868225097656,4788639621,40.4756988,-3.7053796,"(40.475698800000004, -3.7053796000000001)",,20.95622499301155,"(40.475698800000004, -3.7053796000000001)"
FUE_04-15_0000000059,ZV,CIUDAD LINEAL,PARQUE ANEMONAS,"GOLFO DE SALONICA, 19",443477.2104,4480919.478,ETRS89 / UTM  Zona 30N,EN SERVICIO,,3-nov.-17,-3.66683292388916,40.4770393371582,3964249625,40.4770876,-3.6668164,"(40.477087599999997, -3.6668164000000001)",,5.547153046928596,"(40.477087599999997, -3.6668164000000001)"
FUE_04-15_0000000036,ZV,CIUDAD LINEAL,PINAR DE CHAMARTIN,"CALERUEGA, 32",443249.0534,4481380.15,ETRS89 / UTM  Zona 30N,EN SERVICIO,,3-nov.-17,-3.6695656776428223,40.481170654296875,307782191,40.4812719,-3.669598,"(40.481271900000003, -3.6695980000000001)",,11.588427682759756,"(40.481271900000003, -3.6695980000000001)"
FUE_03-08_0000000042,ZV,FUENCARRAL-EL PARDO,BETANZOS - FERMIN CABALLERO,AVDA. DE BETANZOS  Nº60,439508.1466,4481410.69,ETRS89 / UTM  Zona 30N,EN SERVICIO,,3-nov.-17,-3.7137017250061035,40.48118209838867,1851695655,40.4812269,-3.7137248,"(40.481226900000003, -3.7137248)",,5.351857607315985,"(40.481226900000003, -3.7137248)"
FUE_04-15_0000000035,ZV,CIUDAD LINEAL,PINAR DE CHAMARTIN,"CALERUEGA, 112",443312.7554,4481408.649,ETRS89 / UTM  Zona 30N,EN SERVICIO,,3-nov.-17,-3.6688168048858643,40.4814338684082,307782194,40.4814665,-3.6687648,"(40.481466500000003, -3.6687647999999999)",,5.703509259404049,"(40.481466500000003, -3.6687647999999999)"
FUE_03-08_0000000130,ZV,FUENCARRAL-EL PARDO,PZA. - C/ ISLA AROSA C/ FERMIN CABALLERO,C/ISLA DE AROSA  Nº20,439295.6311,4481446.963,ETRS89 / UTM  Zona 30N,EN SERVICIO,,3-nov.-17,-3.716212511062622,40.48149490356445,1893858195,40.4814234,-3.7161879,"(40.481423399999997, -3.7161879)",,8.221104180447721,"(40.481423399999997, -3.7161879)"
FUE_04-15_0000000037,ZV,CIUDAD LINEAL,PINAR DE CHAMARTIN,"BRIVIESCA, 5",443441.0853,4481457.136,ETRS89 / UTM  Zona 30N,EN SERVICIO,,3-nov.-17,-3.667306900024414,40.48188018798828,307782198,40.4818256,-3.667237,"(40.481825600000001, -3.6672370000000001)",,8.475523869060373,"(40.481825600000001, -3.6672370000000001)"
FUE_03-08_0000000041,ZV,FUENCARRAL-EL PARDO,PZA. DE LA CAROLINA,,439377.8222,4481512.742,ETRS89 / UTM  Zona 30N,EN SERVICIO,,3-nov.-17,-3.7152490615844727,40.482093811035156,1893858187,40.4820048,-3.7153645,"(40.482004799999999, -3.7153645000000002)",,13.906585698397716,"(40.482004799999999, -3.7153645000000002)"
FUE_04-16_0000000116,ZV,HORTALEZA,PARQUE EN C/ INFANTA CATALINA MICAELA,"INFANTA CATALINA MICAELA, 3",444213.0815,4481873.245,ETRS89 / UTM  Zona 30N,EN SERVICIO,,3-nov.-17,-3.658235788345337,40.485679626464844,4210986249,40.4856629,-3.6581509,"(40.485662900000001, -3.6581508999999999)",,7.418220803099849,"(40.485662900000001, -3.6581508999999999)"
FB_000089,ZV,HORTALEZA,PARQUE FORESTAL DE VALDEBEBAS-PARQUE FELIPE VI,,446989.4416,4482122.241,ETRS89 / UTM  Zona 30N,EN SERVICIO,,3-nov.-17,-3.625500202178955,40.48810577392578,3577606822,40.4881568,-3.6254753,"(40.488156799999999, -3.6254753000000002)",,6.05376453491992,"(40.488156799999999, -3.6254753000000002)"
FB_000088,ZV,HORTALEZA,PARQUE FORESTAL DE VALDEBEBAS-PARQUE FELIPE VI,,447085.8489,4482250.897,ETRS89 / UTM  Zona 30N,EN SERVICIO,,3-nov.-17,-3.624373197555542,40.4892692565918,3577606884,40.4893154,-3.6243316,"(40.489315400000002, -3.6243316000000001)",,6.222764090391416,"(40.489315400000002, -3.6243316000000001)"
FUE_04-16_0000000142,ZV,HORTALEZA,PARQUE INFANTA CATALINA MICAELA,"PRINCIPE CARLOS, 13",444749.6123,4482284.494,ETRS89 / UTM  Zona 30N,EN SERVICIO,,3-nov.-17,-3.6519415378570557,40.48942184448242,4253379167,40.4893676,-3.6519762,"(40.489367600000001, -3.6519762)",,6.7081427760761,"(40.489367600000001, -3.6519762)"
FB_000086,ZV,HORTALEZA,PARQUE FORESTAL DE VALDEBEBAS-PARQUE FELIPE VI,,446769.075,4482311.638,ETRS89 / UTM  Zona 30N,EN SERVICIO,,3-nov.-17,-3.6281158924102783,40.48979568481445,3577606918,40.4898558,-3.6280939,"(40.489855800000001, -3.6280939000000001)",,6.940361863540345,"(40.489855800000001, -3.6280939000000001)"
FB_000085,ZV,HORTALEZA,PARQUE FORESTAL DE VALDEBEBAS-PARQUE FELIPE VI,,446384.5321,4482383.316,ETRS89 / UTM  Zona 30N,EN SERVICIO,,3-nov.-17,-3.632659435272217,40.49041748046875,3577606962,40.4904548,-3.6326215,"(40.490454800000002, -3.6326214999999999)",,5.246636118486274,"(40.490454800000002, -3.6326214999999999)"
FUE_03-08_0000000097,ZV,FUENCARRAL-EL PARDO,PARQUE ARROYO FRESNO,AVDA.ARRROYOFRESNO C/V SENDA DEL INFANTE,438733.2897,4482607.487,ETRS89 / UTM  Zona 30N,EN SERVICIO,,3-nov.-17,-3.72295880317688,40.49190902709961,309412301,40.4918554,-3.7229501,"(40.491855399999999, -3.7229500999999998)",,6.009999980530672,"(40.491855399999999, -3.7229500999999998)"
FUE_04-16_0000000146,ZV,HORTALEZA,PARQUE MARIA TUDOR,"MARIA TUDOR, 14",444042.6202,4482870.507,ETRS89 / UTM  Zona 30N,EN SERVICIO,,3-nov.-17,-3.660335063934326,40.494651794433594,4214295911,40.4945969,-3.6604199,"(40.494596899999998, -3.6604198999999999)",,9.421846409765989,"(40.494596899999998, -3.6604198999999999)"
FB_000084,ZV,HORTALEZA,PARQUE FORESTAL DE VALDEBEBAS-PARQUE FELIPE VI,,446749.788,4482875.658,ETRS89 / UTM  Zona 30N,EN SERVICIO,,3-nov.-17,-3.6283910274505615,40.494876861572266,3577607051,40.4949048,-3.6283411,"(40.4949048, -3.6283411000000001)",,5.243143005462529,"(40.4949048, -3.6283411000000001)"
FB_000080,ZV,HORTALEZA,PARQUE FORESTAL DE VALDEBEBAS-PARQUE FELIPE VI,,446929.5629,4483122.218,ETRS89 / UTM  Zona 30N,EN SERVICIO,,3-nov.-17,-3.6262903213500977,40.497108459472656,3533873126,40.4971581,-3.6262801,"(40.4971581, -3.6262800999999998)",,5.588604056589593,"(40.4971581, -3.6262800999999998)"
FUE_03-08_0000000009,ZV,FUENCARRAL-EL PARDO,A.V.C. LAS TABLAS,C/PALAS DE REY Nº5,443952.9451,4483781.233,ETRS89 / UTM  Zona 30N,EN SERVICIO,,3-nov.-17,-3.6614737510681152,40.50284957885742,309542785,40.5028865,-3.6614202,"(40.502886500000002, -3.6614201999999998)",,6.113592696463203,"(40.502886500000002, -3.6614201999999998)"
FUE_03-08_0000000004,ZV,FUENCARRAL-EL PARDO,"AVDA MONTECARMELO, 10 ",DETRÁS DEL CEMENTERIO,440420.3714,4484468.585,ETRS89 / UTM  Zona 30N,FUERA DE SERVICIO,DEFICIENCIA ESTRUCTURAL,3-nov.-17,-3.7032275199890137,40.50879669189453,309541570,40.5089403,-3.7033474,"(40.508940299999999, -3.7033474000000002)",,18.918528723563558,"(40.508940299999999, -3.7033474000000002)"
FUE_03-08_0000000003,ZV,FUENCARRAL-EL PARDO,A.V.C. LAS TABLAS,,443432.2386,4484851.356,ETRS89 / UTM  Zona 30N,EN SERVICIO,,3-nov.-17,-3.6677145957946777,40.512454986572266,3999057370,40.512484,-3.6678101,"(40.512484000000001, -3.6678101000000001)",,8.696846601281369,"(40.512484000000001, -3.6678101000000001)"
FUE_03-08_0000000012,ZV,FUENCARRAL-EL PARDO,PARQUE DEL PUEBLO DE EL PARDO,,434446.8682,4485509.632,ETRS89 / UTM  Zona 30N,EN SERVICIO,,3-nov.-17,-3.7738356590270996,40.517723083496094,1065410258,40.5177233,-3.7737616,"(40.5177233, -3.7737615999999998)",,6.262089526952366,"(40.5177233, -3.7737615999999998)"
