CODIGO,ZV-VP,DISTRITO,DIRECCION,COMP-DIR,X_ETRS89,Y_ETRS89,SISTEMA DE COORDENADAS,ESTADO,OBSERVACIONES,FECHA,LONGITUD,LATITUD,id_OSM,lat_OSM,lon_OSM,coord_OSM,name_OSM,score_OSM,coord
FUE_06-17_0000000120,VP,VILLAVERDE,AV .DE LOS ROSALES  131,,"442425,6818","4467013,953",ETRS89 / UTM  Zona 30N,EN SERVICIO,,3-nov.-17,-3.6779792,40.3516975,No match,,,"(None, None)",,4503595.316653625,"('40.3516975', '-3.6779792')"
FUE_06-17_0000000071,ZV,VILLAVERDE,INT HUESPED DEL SEVILLANO DÑA FRANCISQUITA,,"440666,7395","4467541,098",ETRS89 / UTM  Zona 30N,EN SERVICIO,,3-nov.-17,-3.6987395,40.3563231,No match,,,"(None, None)",,4504281.596356318,"('40.3563231', '-3.6987395')"
FUE_06-17_0000000073,ZV,VILLAVERDE,INTBL. SOTO DEL PARRAL- HUESPED SEVILLANO,,"440748,1625","4467576,455",ETRS89 / UTM  Zona 30N,EN SERVICIO,,3-nov.-17,-3.697784,40.3566474,No match,,,"(None, None)",,4504309.444727436,"('40.3566474', '-3.697784')"
FUE_05-18_0000000048,VP,VILLA DE VALLECAS,CAÑADA DEL SANTISIMO 30,,"449168,9057","4468376,501",ETRS89 / UTM  Zona 30N,EN SERVICIO,,3-nov.-17,-3.5986857,40.3644106,No match,,,"(None, None)",,4504345.819716335,"('40.3644106', '-3.5986857')"
FUE_05-18_0000000050,ZV,VILLA DE VALLECAS,ENTREPEÑAS    71,,"448221,3061","4468529,515",ETRS89 / UTM  Zona 30N,EN SERVICIO,,3-nov.-17,-3.6098583,40.3657308,No match,,,"(None, None)",,4504583.626487699,"('40.3657308', '-3.6098583')"
FUE_06-12_0000000065,VP,USERA,BEASAIN 39 - 45  ,,"439239,9878","4468753,572",ETRS89 / UTM  Zona 30N,EN SERVICIO,,3-nov.-17,-3.7156559,40.367143,No match,,,"(None, None)",,4505621.801938844,"('40.367143', '-3.7156559')"
FUE_05-18_0000000052,ZV,VILLA DE VALLECAS,PROVISIONAL ATALAYUELA  TRES,,"445828,8248","4468761,782",ETRS89 / UTM  Zona 30N,EN SERVICIO,,3-nov.-17,-3.6380556,40.3676711,No match,,,"(None, None)",,4505030.974897051,"('40.3676711', '-3.6380556')"
FUE_03-10_0000000038,ZV,LATINA,Z.A. PAU CARABANCHEL - UNIDAD III,,435078.29,4468924.45,ETRS89 / UTM  Zona 30N,EN SERVICIO,,3-nov.-17,-3.7646875,40.3683686,No match,,,"(None, None)",,4506174.685737414,"('40.3683686', '-3.7646875')"
FUE_06-12_0000000060,ZV,USERA,PZA. ASOCIACION MESETA DE ORCASITAS,,"439884,1619","4469010,373",ETRS89 / UTM  Zona 30N,EN SERVICIO,,3-nov.-17,-3.7080934,40.369503,No match,,,"(None, None)",,4505819.117532941,"('40.369503', '-3.7080934')"
FUE_05-13_0000000082,ZV,PUENTE VALLECAS,PARQUE GARRRIGUES WALKER,,"443876,2747","4469002,731",ETRS89 / UTM  Zona 30N,EN SERVICIO,,3-nov.-17,-3.6610735,40.3697126,No match,,,"(None, None)",,4505448.111954439,"('40.3697126', '-3.6610735')"
FUE_05-18_0000000051,ZV,VILLA DE VALLECAS,AV.MAYORAZGO 20,,"446301,7611","4468999,448",ETRS89 / UTM  Zona 30N,EN SERVICIO,,3-nov.-17,-3.6325054,40.3698428,No match,,,"(None, None)",,4505225.456561196,"('40.3698428', '-3.6325054')"
FUE_05-18_0000000047,VP,VILLA DE VALLECAS,AV. DE LA GAVIA  40,,"447952,8408","4469208,404",ETRS89 / UTM  Zona 30N,EN SERVICIO,,3-nov.-17,-3.6130756,40.3718299,No match,,,"(None, None)",,4505285.250812283,"('40.3718299', '-3.6130756')"
FUE_06-12_0000000068,ZV,USERA,PLAZA ZAPOTA,,"438991,5763","4469282,162",ETRS89 / UTM  Zona 30N,EN SERVICIO,,3-nov.-17,-3.7186322,40.3718866,No match,,,"(None, None)",,4506171.952242698,"('40.3718866', '-3.7186322')"
FB_100010,ZV,PUENTE VALLECAS,PARQUE LINEAL DEL MANZANAREES,07 · MONTAÑA (C.01),441891,"4469346,8",ETRS89 / UTM  Zona 30N,EN SERVICIO,,3-nov.-17,-3.6844875,40.3726761,No match,,,"(None, None)",,4505971.786641036,"('40.3726761', '-3.6844875')"
FUE_06-12_0000000024,ZV,USERA,PARQUE DE PRADOLONGO,,"439829,9992","4469568,607",ETRS89 / UTM  Zona 30N,EN SERVICIO,,3-nov.-17,-3.708784,40.3745281,No match,,,"(None, None)",,4506381.089900613,"('40.3745281', '-3.708784')"
FB_100004,ZV,USERA,PARQUE LINEAL DEL MANZANAREES,08 · PRADERA-ESTANQUE (B.05),"441665,2","4469579,1",ETRS89 / UTM  Zona 30N,EN SERVICIO,,3-nov.-17,-3.6871684,40.374753,No match,,,"(None, None)",,4506224.1389225945,"('40.374753', '-3.6871684')"
FUE_05-13_0000000093,ZV,PUENTE VALLECAS,AVD DE ENTREVÍAS EN EL CRUCE CON RONDA DEL SUR,,"443955,7671","4469789,003",ETRS89 / UTM  Zona 30N,EN SERVICIO,,3-nov.-17,-3.6602062,40.3768011,No match,,,"(None, None)",,4506225.498303091,"('40.3768011', '-3.6602062')"
FUE_03-10_0000000107,ZV,LATINA,PZA. VIRGEN DE LOS LLANOS Nº 1,,"433819,7559","4469948,818",ETRS89 / UTM  Zona 30N,EN SERVICIO,,3-nov.-17,-3.7796163,40.3774976,No match,,,"(None, None)",,4507312.948584485,"('40.3774976', '-3.7796163')"
FUE_05-18_0000000049,VP,VILLA DE VALLECAS,PICO  MANPODRE 21,,"447332,8791","4469847,63",ETRS89 / UTM  Zona 30N,EN SERVICIO,,3-nov.-17,-3.6204307,40.3775496,No match,,,"(None, None)",,4505978.949801832,"('40.3775496', '-3.6204307')"
FUE_05-13_0000000063,ZV,PUENTE VALLECAS,PUERTO DE BALBARÁN JUNTO A PISTAS,,"443876,5911","4469893,588",ETRS89 / UTM  Zona 30N,EN SERVICIO,,3-nov.-17,-3.6611481,40.377738,No match,,,"(None, None)",,4506337.045366779,"('40.377738', '-3.6611481')"
FUE_05-13_0000000150,VP,PUENTE VALLECAS,PLAZA DEL CINE  S/N,,"444463,8469","4470079,468",ETRS89 / UTM  Zona 30N,EN SERVICIO,,3-nov.-17,-3.6542467,40.3794519,No match,,,"(None, None)",,4506469.332305948,"('40.3794519', '-3.6542467')"
FUE_05-13_0000000092,ZV,PUENTE VALLECAS,PARQUE LINEAL DE PALOMERAS EN EL CRUCE CON CALLE ARAGONESES,,"445387,9364","4470126,469",ETRS89 / UTM  Zona 30N,EN SERVICIO,,3-nov.-17,-3.6433651,40.3799363,No match,,,"(None, None)",,4506432.634006461,"('40.3799363', '-3.6433651')"
FUE_05-13_0000000073,ZV,PUENTE VALLECAS,PARQUE LINEAL DE PALOMERAS EN EL CRUCE CON CALLE LEONESES EN ANILLO CICLISTA,,"445103,0512","4470186,518",ETRS89 / UTM  Zona 30N,EN SERVICIO,,3-nov.-17,-3.6467262,40.3804586,No match,,,"(None, None)",,4506518.316701202,"('40.3804586', '-3.6467262')"
FUE_03-10_0000000071,ZV,LATINA,JARDINES DE LA COL. CASILDA BUSTOS A,CALLE GENERAL ROMERO BASART CV AVDA GENERAL FANJUL,434126.92,4470400.31,ETRS89 / UTM  Zona 30N,EN SERVICIO,,3-nov.-17,-3.7760449,40.3815891,No match,,,"(None, None)",,4507735.00195456,"('40.3815891', '-3.7760449')"
FUE_06-12_0000000052,ZV,USERA,PARQUE OLOF PALME,,"439600,9711","4470502,347",ETRS89 / UTM  Zona 30N,EN SERVICIO,,3-nov.-17,-3.7115702,40.3829231,No match,,,"(None, None)",,4507333.703977341,"('40.3829231', '-3.7115702')"
FUE_05-13_0000000151,ZV,PUENTE VALLECAS,PLAZA DE SAN DIEGO,C/ JAVIER DE MIGUEL 126,"444507,0049","4470657,362",ETRS89 / UTM  Zona 30N,EN SERVICIO,,3-nov.-17,-3.6537887,40.3846607,No match,,,"(None, None)",,4507042.087014082,"('40.3846607', '-3.6537887')"
FUE_05-13_0000000138,VP,PUENTE VALLECAS,CONCEJO DE TEVERGA ENTRE Nº 10 Y 14,,"442855,3243","4470754,424",ETRS89 / UTM  Zona 30N,EN SERVICIO,,3-nov.-17,-3.6732554,40.3854235,No match,,,"(None, None)",,4507288.709151417,"('40.3854235', '-3.6732554')"
FB_900063,ZV,USERA,MADRID RÍO,Z.27. - VADO - PARQUE LINEAL DEL MANZANARES,"440907,9","4470838,6",ETRS89 / UTM  Zona 30N,EN SERVICIO,,3-nov.-17,-3.6962053,40.3860459,No match,,,"(None, None)",,4507549.902267174,"('40.3860459', '-3.6962053')"
FUE_06-12_0000000066,VP,USERA,SAN NICOMEDES  12,,"439406,215","4470960,593",ETRS89 / UTM  Zona 30N,EN SERVICIO,,3-nov.-17,-3.713908,40.387037,No match,,,"(None, None)",,4507808.737590115,"('40.387037', '-3.713908')"
FUE_05-13_0000000075,ZV,PUENTE VALLECAS,PARQUE LINEAL DE PALOMERAS EN EL CRUCE CON CALLE DE LOS ANDALUCES,,"446193,7102","4471061,254",ETRS89 / UTM  Zona 30N,EN SERVICIO,,3-nov.-17,-3.6339521,40.3884099,No match,,,"(None, None)",,4507292.713928203,"('40.3884099', '-3.6339521')"
FUE_06-11_0000000126,ZV,CARABANCHEL,GUADALETE  11 - 13,,"439287,5989","4471149,258",ETRS89 / UTM  Zona 30N,EN SERVICIO,,3-nov.-17,-3.7153234,40.388728,No match,,,"(None, None)",,4508007.838860012,"('40.388728', '-3.7153234')"
FUE_06-11_0000000019,ZV,CARABANCHEL,PZA. BLANDON - CONDOR - AMISTAD,,"437259,7306","4471254,027",ETRS89 / UTM  Zona 30N,EN SERVICIO,,3-nov.-17,-3.7392246,40.3895216,No match,,,"(None, None)",,4508298.213540161,"('40.3895216', '-3.7392246')"
FUE_05-13_0000000152,VP,PUENTE VALLECAS,AV. SAN DIEGO C/V GARCÍA LLAMAS ,,"443336,9114","4471250,454",ETRS89 / UTM  Zona 30N,FUERA DE SERVICIO,DEFICIENCIA ESTRUCTURAL,3-nov.-17,-3.667626,40.3899249,No match,,,"(None, None)",,4507739.96136636,"('40.3899249', '-3.667626')"
FUE_05-13_0000000068,ZV,PUENTE VALLECAS,PARQUE AZORÍN JUNTO A FUENTES ORNAMENTALES,,"444445,8645","4471273,924",ETRS89 / UTM  Zona 30N,EN SERVICIO,,3-nov.-17,-3.6545628,40.390211,No match,,,"(None, None)",,4507662.881826167,"('40.390211', '-3.6545628')"
FUE_02-02_0000000037,ZV,ARGANZUELA,PARQUE ENRIQUE TIERNO GALVAN,EN LACOTA. C/TITÁN Nº 2,"442126,2715","4471306,252",ETRS89 / UTM  Zona 30N,EN SERVICIO,,3-nov.-17,-3.6818943,40.3903443,No match,,,"(None, None)",,4507905.60165784,"('40.3903443', '-3.6818943')"
FUE_02-02_0000000039,ZV,ARGANZUELA,PARQUE ENRIQUE TIERNO GALVAN,,"441803,0759","4471517,317",ETRS89 / UTM  Zona 30N,EN SERVICIO,,3-nov.-17,-3.6857213,40.3922232,No match,,,"(None, None)",,4508145.61429662,"('40.3922232', '-3.6857213')"
FB_900056,ZV,ARGANZUELA,MADRID RÍO,Z.23. - ARGANZUELA - Pº DE LA CHOPERA,"440535,5",4471544,ETRS89 / UTM  Zona 30N,EN SERVICIO,,3-nov.-17,-3.7006584,40.3923741,No match,,,"(None, None)",,4508287.735306128,"('40.3923741', '-3.7006584')"
FB_900057,ZV,ARGANZUELA,MADRID RÍO,Z.23. - ARGANZUELA - Pº DE LA CHOPERA,"440534,9","4471544,7",ETRS89 / UTM  Zona 30N,EN SERVICIO,,3-nov.-17,-3.7006655,40.3923803,No match,,,"(None, None)",,4508288.481234311,"('40.3923803', '-3.7006655')"
FUE_02-02_0000000040,ZV,ARGANZUELA,PARQUE ENRIQUE TIERNO GALVAN,,"442001,4877","4471569,775",ETRS89 / UTM  Zona 30N,EN SERVICIO,,3-nov.-17,-3.6833884,40.3927097,No match,,,"(None, None)",,4508179.91800678,"('40.3927097', '-3.6833884')"
FUE_02-02_0000000053,VP,ARGANZUELA,CALLE HIERRO,CON VUELTA CALLE GRANITO,441239.5,4471658.3,ETRS89 / UTM  Zona 30N,EN SERVICIO,,3-nov.-17,-3.6923744,40.3934537,No match,,,"(None, None)",,4508337.605368812,"('40.3934537', '-3.6923744')"
FUE_02-02_0000000052,ZV,ARGANZUELA,C/MENESES S/N,EN ZONA VERDE CV A LA AVDA DEL PLANETARIO,"442125,47","4471670,41",ETRS89 / UTM  Zona 30N,EN SERVICIO,,3-nov.-17,-3.6819368,40.3936248,No match,,,"(None, None)",,4508269.049287723,"('40.3936248', '-3.6819368')"
FUE_02-03_0000000046,ZV,RETIRO,CALLE CERRO NEGRO,,442951.19,"4471915,44",ETRS89 / UTM  Zona 30N,EN SERVICIO,,3-nov.-17,-3.67223,40.3958892,No match,,,"(None, None)",,4508438.537304226,"('40.3958892', '-3.67223')"
FUE_03-10_0000000109,VP,LATINA,CALLE CONCEJAL FRANCISCO JOSÉ JIMÉNEZ MARTÍN CV C/BARBERÁN Y COLLAR,"PARQUE CUÑA VERDE, ZONA PIRÁMIDE","435446,7","4472050,24",ETRS89 / UTM  Zona 30N,EN SERVICIO,,3-nov.-17,-3.7606652,40.3965556,No match,,,"(None, None)",,4509259.375918478,"('40.3965556', '-3.7606652')"
FUE_06-11_0000000011,ZV,CARABANCHEL,"GENERAL RICARDOS, 17",,"439113,1134","4472022,527",ETRS89 / UTM  Zona 30N,FUERA DE SERVICIO,DEFICIENCIA ESTRUCTURAL,3-nov.-17,-3.7174626,40.3965821,No match,,,"(None, None)",,4508895.1389806615,"('40.3965821', '-3.7174626')"
FUE_03-10_0000000036,ZV,LATINA,PARQUE DE ALUCHE - ARIAS NAVARRO,,"435704,5576","4472123,541",ETRS89 / UTM  Zona 30N,EN SERVICIO,,3-nov.-17,-3.7576344,40.3972359,No match,,,"(None, None)",,4509308.762064005,"('40.3972359', '-3.7576344')"
FUE_06-11_0000000039,ZV,CARABANCHEL,PARQUE SAN ISIDRO,,"437885,6001","4472208,4",ETRS89 / UTM  Zona 30N,EN SERVICIO,,3-nov.-17,-3.7319441,40.3981659,No match,,,"(None, None)",,4509193.019442852,"('40.3981659', '-3.7319441')"
FUE_06-11_0000000127,ZV,CARABANCHEL,PARQUE SAN ISIDRO,PLAZA DE LA FUENTE DEL TRÉBOL,"438211,117","4472209,082",ETRS89 / UTM  Zona 30N,EN SERVICIO,,3-nov.-17,-3.7281086,40.3981962,No match,,,"(None, None)",,4509163.855649419,"('40.3981962', '-3.7281086')"
FUE_02-03_0000000024,ZV,RETIRO,PARQUE MARTIN LUTHER KING,,"443176,2633","4472237,002",ETRS89 / UTM  Zona 30N,EN SERVICIO,,3-nov.-17,-3.6696067,40.3988013,No match,,,"(None, None)",,4508738.972916945,"('40.3988013', '-3.6696067')"
FUE_06-11_0000000119,ZV,CARABANCHEL,PARQUE SAN ISIDRO,,"438408,7521","4472295,082",ETRS89 / UTM  Zona 30N,EN SERVICIO,,3-nov.-17,-3.7257882,40.3989856,No match,,,"(None, None)",,4509231.561760115,"('40.3989856', '-3.7257882')"
FUE_05-13_0000000111,ZV,PUENTE VALLECAS,C/EL BOSCO CON RAMÓN PÉREZ DE AYALA  JUNTO A COLEGIO TAJAMAR,,"444933,2972","4472260,057",ETRS89 / UTM  Zona 30N,EN SERVICIO,,3-nov.-17,-3.6489052,40.3991271,No match,,,"(None, None)",,4508602.841106777,"('40.3991271', '-3.6489052')"
FB_900022,ZV,CARABANCHEL,MADRID RIO,Z.12. - SALON DE PINOS - PUENTE DE SAN ISIDRO,"439102,7","4472337,3",ETRS89 / UTM  Zona 30N,EN SERVICIO,,3-nov.-17,-3.7176154,40.399417,No match,,,"(None, None)",,4509210.172642627,"('40.399417', '-3.7176154')"
FUE_03-10_0000000016,ZV,LATINA,CUÑA VERDE LA LATINA,CALLE ALHAMBRA Nº 29,"436864,5863","4472384,941",ETRS89 / UTM  Zona 30N,FUERA DE SERVICIO,DEFICIENCIA ESTRUCTURAL,3-nov.-17,-3.743992,40.3996794,No match,,,"(None, None)",,4509462.865771647,"('40.3996794', '-3.743992')"
FUE_03-10_0000000099,ZV,LATINA,CUÑA VERDE LA LATINA,C/SESEÑA 99. DENTRO DEL PARQUE. EN EL CARRIL BICI,"435248,565","4472411,557",ETRS89 / UTM  Zona 30N,EN SERVICIO,,3-nov.-17,-3.7630364,40.3997952,No match,,,"(None, None)",,4509638.137401646,"('40.3997952', '-3.7630364')"
FUE_03-10_0000000029,ZV,LATINA,CUÑA VERDE LA LATINA,CALLE CONCEJAL FRANCISCO JOSÉ JIMÉNEZ MARTÍN Nº132,"436579,2398","4472429,004",ETRS89 / UTM  Zona 30N,EN SERVICIO,,3-nov.-17,-3.7473587,40.4000547,No match,,,"(None, None)",,4509533.057401303,"('40.4000547', '-3.7473587')"
FUE_05-19_0000000139,ZV,VICÁLVARO,VICTORIA KENT CAÑAVERAL,,"452246,2796","4472410,413",ETRS89 / UTM  Zona 30N,EN SERVICIO,,3-nov.-17,-3.5627446,40.4009331,No match,,,"(None, None)",,4508096.51302557,"('40.4009331', '-3.5627446')"
FUE_02-02_0000000009,ZV,ARGANZUELA,PZA. LUCA DE TENA,PZA  LUCA DE TENA N º2,"441149,1029","4472614,311",ETRS89 / UTM  Zona 30N,EN SERVICIO,,3-nov.-17,-3.6935279,40.4020595,No match,,,"(None, None)",,4509299.767370612,"('40.4020595', '-3.6935279')"
FUE_02-03_0000000011,ZV,RETIRO,PARQUE MARTIN LUTHER KING,C/ARREGUI Y ARUEJ  24,"443306,1855","4472675,612",ETRS89 / UTM  Zona 30N,EN SERVICIO,,3-nov.-17,-3.6681148,40.4027614,No match,,,"(None, None)",,4509164.859015054,"('40.4027614', '-3.6681148')"
FUE_02-02_0000000012,ZV,ARGANZUELA,ANTIGUA ESTACION SUR,C/PALOS DE LA FRONTERA Nº 29 ,"441049,3744","4472708,743",ETRS89 / UTM  Zona 30N,EN SERVICIO,,3-nov.-17,-3.6947118,40.4029032,No match,,,"(None, None)",,4509403.08638426,"('40.4029032', '-3.6947118')"
FUE_02-03_0000000045,VP,RETIRO,CALLE ANTONIO NEBRIJA,CONFLUENCIA CON CALLE COMERCIO,"441972,931","4472717,182",ETRS89 / UTM  Zona 30N,EN SERVICIO,,3-nov.-17,-3.6838295,40.4030441,No match,,,"(None, None)",,4509327.438302051,"('40.4030441', '-3.6838295')"
FUE_02-03_0000000021,ZV,RETIRO,STA. SABINA - DR. ESQUERDO,C/SANTA SABINA Nº 6,"443110,9647","4472923,757",ETRS89 / UTM  Zona 30N,EN SERVICIO,,3-nov.-17,-3.6704375,40.4049836,No match,,,"(None, None)",,4509430.1943993615,"('40.4049836', '-3.6704375')"
FB_900015,ZV,LATINA,MADRID RIO,Z.09. - SALON DE PINOS - PUENTE DE SEGOVIA,"438633,9","4472963,8",ETRS89 / UTM  Zona 30N,EN SERVICIO,,3-nov.-17,-3.7231997,40.4050263,No match,,,"(None, None)",,4509878.173120615,"('40.4050263', '-3.7231997')"
FUE_02-03_0000000042,VP,RETIRO,CAVANILLES Nº 46 PASAJE,CAVANILLES CV CALLE ABTAO,"442748,431","4472936,672",ETRS89 / UTM  Zona 30N,EN SERVICIO,,3-nov.-17,-3.6747108,40.405075,No match,,,"(None, None)",,4509475.976982924,"('40.405075', '-3.6747108')"
FUE_05-19_0000000092,ZV,VICÁLVARO,PARQUE DE LA CATALANA,,"449872,6298","4473147,101",ETRS89 / UTM  Zona 30N,EN SERVICIO,,3-nov.-17,-3.5907731,40.4074302,No match,,,"(None, None)",,4509043.701279535,"('40.4074302', '-3.5907731')"
FUE_02-03_0000000013,ZV,RETIRO,JARDINES CONDE CARTAGENA - ABTAO,C/ CONDE DE CARTAGENA 16,"442783,5549","4473222,373",ETRS89 / UTM  Zona 30N,EN SERVICIO,,3-nov.-17,-3.6743227,40.4076512,No match,,,"(None, None)",,4509757.8812994035,"('40.4076512', '-3.6743227')"
FUE_03-10_0000000039,ZV,LATINA,Z.A. PARQUE CARAMUEL,CALLE CARAMUEL Nº 58,"438101,7953","4473275,841",ETRS89 / UTM  Zona 30N,EN SERVICIO,,3-nov.-17,-3.7295004,40.4077979,No match,,,"(None, None)",,4510238.252479872,"('40.4077979', '-3.7295004')"
FB_000019,ZV,RETIRO,JARDINES DEL BUEN RETIRO,A. 5 · ENCINAR,"442420,89","4473318,61",ETRS89 / UTM  Zona 30N,FUERA DE SERVICIO,DEFICIENCIA ESTRUCTURAL,3-nov.-17,-3.6786052,40.4084932,No match,,,"(None, None)",,4509886.853611468,"('40.4084932', '-3.6786052')"
FUE_05-14_0000000090,ZV,MORATALAZ,PARQUE  MARTALA CALLE MOLINA DE SEGURA,,"445778,0333","4473303,398",ETRS89 / UTM  Zona 30N,EN SERVICIO,,3-nov.-17,-3.6390404,40.4085816,No match,,,"(None, None)",,4509567.689692393,"('40.4085816', '-3.6390404')"
FUE_05-19_0000000140,ZV,VICÁLVARO,PLAZA VICALVARADA CV C/ CALAHORRA 22,,"448223,6042","4473350,689",ETRS89 / UTM  Zona 30N,EN SERVICIO,,3-nov.-17,-3.6102232,40.4091633,No match,,,"(None, None)",,4509394.718315386,"('40.4091633', '-3.6102232')"
FB_000018,ZV,RETIRO,JARDINES DEL BUEN RETIRO,A. 17 · ÁREA CANINA,"442256,56","4473420,36",ETRS89 / UTM  Zona 30N,EN SERVICIO,,3-nov.-17,-3.680551,40.4093984,No match,,,"(None, None)",,4510003.312423358,"('40.4093984', '-3.680551')"
FUE_01-01_0000000012,ZV,CENTRO,PARQUE DE LA CORNISA,PARQUE DE LA CORNISA,"439304,7466","4473492,437",ETRS89 / UTM  Zona 30N,EN SERVICIO,,3-nov.-17,-3.7153448,40.4098378,No match,,,"(None, None)",,4510344.28648555,"('40.4098378', '-3.7153448')"
FUE_05-14_0000000094,ZV,MORATALAZ,CALLE DE LITUANIA,,"443924,5914","4473459,024",ETRS89 / UTM  Zona 30N,EN SERVICIO,,3-nov.-17,-3.6608967,40.4098607,No match,,,"(None, None)",,4509890.551449034,"('40.4098607', '-3.6608967')"
FUE_05-14_0000000067,ZV,MORATALAZ,PARQUE NORTE ENTRE CALLE FLORENCIO CANO Y CALLE FOBOS JUNTO A ZONA INFANTIL,,"446274,1523","4473488,611",ETRS89 / UTM  Zona 30N,FUERA DE SERVICIO,VANDALISMO REITERADO,3-nov.-17,-3.6332092,40.4102822,No match,,,"(None, None)",,4509707.757258526,"('40.4102822', '-3.6332092')"
FB_000016,ZV,RETIRO,JARDINES DEL BUEN RETIRO,A. 4 · LA ROSALEDA Y ENTORNO,"442221,31","4473614,46",ETRS89 / UTM  Zona 30N,EN SERVICIO,,3-nov.-17,-3.6809841,40.4111445,No match,,,"(None, None)",,4510200.1974198315,"('40.4111445', '-3.6809841')"
FUE_05-14_0000000073,ZV,MORATALAZ,PARQUE CALLE JOSÉ BERGAMIN JUNTO A CUÑA DE ODONELL,,"445730,3257","4473621,754",ETRS89 / UTM  Zona 30N,EN SERVICIO,,3-nov.-17,-3.6396297,40.4114464,No match,,,"(None, None)",,4509889.681294724,"('40.4114464', '-3.6396297')"
FUE_01-01_0000000009,ZV,CENTRO,PLAZA DE LOS CARROS,PLAZA DE LOS CARROS,"439636,4322","4473693,572",ETRS89 / UTM  Zona 30N,EN SERVICIO,,3-nov.-17,-3.711455,40.4116737,No match,,,"(None, None)",,4510514.654086898,"('40.4116737', '-3.711455')"
FUE_03-10_0000000110,VP,LATINA, CALLE SAAVEDRA FAJARDO CV CALLE PABLO CASALS,,438560,4473709.8,ETRS89 / UTM  Zona 30N,EN SERVICIO,,3-nov.-17,-3.7241426,40.4117412,No match,,,"(None, None)",,4510629.28771259,"('40.4117412', '-3.7241426')"
FB_000017,ZV,MONCLOA-ARAVACA,CASA DE CAMPO ZONA FORESTAL,"FUENTE DE LA TORRETA DE INCENDIOS Nº2, CARRETERA","434282,2676","4473774,033",ETRS89 / UTM  Zona 30N,EN SERVICIO,,3-nov.-17,-3.7745631,40.4119931,No match,,,"(None, None)",,4511086.61601111,"('40.4119931', '-3.7745631')"
FUE_05-14_0000000084,ZV,MORATALAZ,C/FUENTE CARRANTONA ENTRE LA CALLE CIUDAD ENCANTADA Y ACCESO A O´DONELL. ANILLO CICLISTA.,,"446712,5462","4473677,688",ETRS89 / UTM  Zona 30N,EN SERVICIO,,3-nov.-17,-3.6280584,40.4120138,No match,,,"(None, None)",,4509856.947547679,"('40.4120138', '-3.6280584')"
FB_000071,ZV,MORATALAZ,CUÑA VERDE DE O'DONELL Y FUENTE CARRANTONA, ,"446184,6355","4473754,611",ETRS89 / UTM  Zona 30N,EN SERVICIO,,3-nov.-17,-3.6342866,40.4126728,No match,,,"(None, None)",,4509981.283815645,"('40.4126728', '-3.6342866')"
FUE_01-01_0000000017,ZV,CENTRO,PASEO DEL PRADO,PASEO DEL PRADO,"441186,3865","4473797,868",ETRS89 / UTM  Zona 30N,EN SERVICIO,,3-nov.-17,-3.6931979,40.4127243,No match,,,"(None, None)",,4510477.36547956,"('40.4127243', '-3.6931979')"
FUE_01-01_0000000043,VP,CENTRO,"CALLE DEL ALMENDRO, 3",,"439844,35",4473824.59,ETRS89 / UTM  Zona 30N,EN SERVICIO,,3-nov.-17,-3.709017,40.4128691,No match,,,"(None, None)",,4510626.403645502,"('40.4128691', '-3.709017')"
FB_000018,ZV,MONCLOA-ARAVACA,CASA DE CAMPO ZONA FORESTAL,FUENTE DE LA GLORIETA DE LOS CAÑOS,"435488,4424","4473918,96",ETRS89 / UTM  Zona 30N,EN SERVICIO,,3-nov.-17,-3.7603628,40.413393,No match,,,"(None, None)",,4511119.998262701,"('40.413393', '-3.7603628')"
FB_000020,ZV,RETIRO,JARDINES DEL BUEN RETIRO,A. 15 · CAMPO GRANDE,"442187,9","4473865,75",ETRS89 / UTM  Zona 30N,EN SERVICIO,,3-nov.-17,-3.6814007,40.413406,No match,,,"(None, None)",,4510453.990210969,"('40.413406', '-3.6814007')"
FB_000069,ZV,MORATALAZ,CUÑA VERDE DE O'DONELL Y FUENTE CARRANTONA, ,"445686,2691","4473862,075",ETRS89 / UTM  Zona 30N,EN SERVICIO,,3-nov.-17,-3.6401694,40.4136085,No match,,,"(None, None)",,4510133.477594303,"('40.4136085', '-3.6401694')"
FUE_01-01_0000000040,VP,CENTRO,"CUESTA DE LOS CIEGOS, 2",JUNTO A LA C/ SEGOVIA,"439341,1751","4473921,165",ETRS89 / UTM  Zona 30N,EN SERVICIO,,3-nov.-17,-3.7149563,40.4137026,No match,,,"(None, None)",,4510768.734442775,"('40.4137026', '-3.7149563')"
FUE_03-09_0000000120,ZV,MONCLOA-ARAVACA,CALLE PRINCIPAL DE PROVINCIAS 9,RECINTOS FERIALES CASA DE CAMPO,"437890,4346","4473957,588",ETRS89 / UTM  Zona 30N,FUERA DE SERVICIO,DEFICIENCIA ESTRUCTURAL,3-nov.-17,-3.7320579,40.4139237,No match,,,"(None, None)",,4510937.858327062,"('40.4139237', '-3.7320579')"
FB_000011,ZV,RETIRO,JARDINES DEL BUEN RETIRO,A. 8 · BOSQUE DEL RECUERDO Y ENTORNO,"441607,814","4473929,64",ETRS89 / UTM  Zona 30N,EN SERVICIO,,3-nov.-17,-3.6882433,40.413941,No match,,,"(None, None)",,4510570.486492292,"('40.413941', '-3.6882433')"
FUE_03-10_0000000040,ZV,LATINA,PZA. STA. CRISTINA - S. CRISPÍN,PLAZA SANTA CRISTINA Nº1,"438297,8271","4473984,063",ETRS89 / UTM  Zona 30N,EN SERVICIO,,3-nov.-17,-3.727259,40.4141924,No match,,,"(None, None)",,4510926.936916769,"('40.4141924', '-3.727259')"
FUE_01-01_0000000021,ZV,CENTRO,PARQUE DE ATENAS,PARQUE DE ATENAS,"438867,16","4474075,74",ETRS89 / UTM  Zona 30N,EN SERVICIO,,3-nov.-17,-3.7205578,40.4150604,No match,,,"(None, None)",,4510966.311550609,"('40.4150604', '-3.7205578')"
FUE_05-14_0000000096,ZV,MORATALAZ,FÉLIX RODRÍGUEZ DE LA FUENTE 67   ,,"444100,5382","4474036,458",ETRS89 / UTM  Zona 30N,EN SERVICIO,,3-nov.-17,-3.6588738,40.4150745,No match,,,"(None, None)",,4510450.839321707,"('40.4150745', '-3.6588738')"
FB_000023,ZV,RETIRO,JARDINES DEL BUEN RETIRO,A. 14 · ESTANQUE,"441965,89","4474101,4",ETRS89 / UTM  Zona 30N,EN SERVICIO,,3-nov.-17,-3.6840387,40.4155134,No match,,,"(None, None)",,4510709.31217857,"('40.4155134', '-3.6840387')"
FUE_01-01_0000000044,VP,CENTRO,"CIUDAD RODRIGO, JUNTO ACCESO PZA. MAYOR",CV TRAVESÍA DE BRINGAS,"439879,02","4474144,04",ETRS89 / UTM  Zona 30N,EN SERVICIO,,3-nov.-17,-3.7086386,40.4157493,No match,,,"(None, None)",,4510941.9799664095,"('40.4157493', '-3.7086386')"
FUE_05-19_0000000067,ZV,VICÁLVARO,CUÑA VERDE ZONA C CERCA DEL PARQUING,,"448035,2759","4474131,755",ETRS89 / UTM  Zona 30N,EN SERVICIO,,3-nov.-17,-3.6125064,40.416188,No match,,,"(None, None)",,4510191.108474003,"('40.416188', '-3.6125064')"
FUE_02-03_0000000041,VP,RETIRO,ALCALDE SAINZ DE BARANDA Nº 65 (EN EL BULEVAR),,"443184,3429","4474203,072",ETRS89 / UTM  Zona 30N,FUERA DE SERVICIO,DEFICIENCIA ESTRUCTURAL,3-nov.-17,-3.6696871,40.4165133,No match,,,"(None, None)",,4510700.110510151,"('40.4165133', '-3.6696871')"
FB_000031,ZV,RETIRO,JARDINES DEL BUEN RETIRO,A. 2 · HERRERO PALACIOS,"442432,11","4474225,04",ETRS89 / UTM  Zona 30N,EN SERVICIO,,3-nov.-17,-3.678555,40.4166595,No match,,,"(None, None)",,4510790.30710196,"('40.4166595', '-3.678555')"
FUE_02-03_0000000010,ZV,RETIRO,JARDINES Pº JOHN LENNON,C/MARQUÉS DE LOZOYA Nº 6,"443511,2571","4474224,198",ETRS89 / UTM  Zona 30N,EN SERVICIO,,3-nov.-17,-3.6658358,40.4167259,No match,,,"(None, None)",,4510691.553511135,"('40.4167259', '-3.6658358')"
FUE_02-03_0000000044,VP,RETIRO,ALCALDE SAINZ DE BARANDA Nº 20 (Nº 18 EN EL BULEVAR),,"442625,9453","4474250,381",ETRS89 / UTM  Zona 30N,EN SERVICIO,,3-nov.-17,-3.6762726,40.4169012,No match,,,"(None, None)",,4510797.992856815,"('40.4169012', '-3.6762726')"
FB_000101,ZV,MONCLOA-ARAVACA,CASA DE CAMPO ZONA URBANA,FUENTE DE LA HUERTA DE LA PARTIDA,"438541,74","4474284,831",ETRS89 / UTM  Zona 30N,EN SERVICIO,,3-nov.-17,-3.7244134,40.41692,No match,,,"(None, None)",,4511204.715636119,"('40.41692', '-3.7244134')"
FB_000033,ZV,MONCLOA-ARAVACA,CASA DE CAMPO ZONA URBANA,FUENTE DE LOS NEVEROS (PASEO DE CASTAÑOS),"437608,5701","4474326,113",ETRS89 / UTM  Zona 30N,EN SERVICIO,,3-nov.-17,-3.7354159,40.4172224,No match,,,"(None, None)",,4511331.395220799,"('40.4172224', '-3.7354159')"
FB_000026,ZV,RETIRO,JARDINES DEL BUEN RETIRO,A. 14 · ESTANQUE,"442235,03","4474305,95",ETRS89 / UTM  Zona 30N,EN SERVICIO,,3-nov.-17,-3.6808852,40.4173748,No match,,,"(None, None)",,4510888.956469437,"('40.4173748', '-3.6808852')"
FB_000034,ZV,MONCLOA-ARAVACA,CASA DE CAMPO ZONA URBANA,FUENTE DEL TRIANGULO,"437726,5995","4474366,658",ETRS89 / UTM  Zona 30N,EN SERVICIO,,3-nov.-17,-3.7340287,40.4175965,No match,,,"(None, None)",,4511361.02836719,"('40.4175965', '-3.7340287')"
FB_000031,ZV,MONCLOA-ARAVACA,CASA DE CAMPO ZONA URBANA,FUENTE Nº1 DEL BOSQUE DEL RUISEÑOR,"437379,459","4474406,618",ETRS89 / UTM  Zona 30N,EN SERVICIO,,3-nov.-17,-3.7381242,40.4179305,No match,,,"(None, None)",,4511432.744204203,"('40.4179305', '-3.7381242')"
FB_000102,ZV,MONCLOA-ARAVACA,CASA DE CAMPO ZONA URBANA,FUENTE DE LA HUERTA DE LA PARTIDA (JUNTO AL MIRADOR),"438413,845","4474401,103",ETRS89 / UTM  Zona 30N,EN SERVICIO,,3-nov.-17,-3.725932,40.4179579,No match,,,"(None, None)",,4511332.428871065,"('40.4179579', '-3.725932')"
FB_000027,ZV,MONCLOA-ARAVACA,CASA DE CAMPO ZONA URBANA,FUENTE Nº5 DEL BOSQUE DEL RUISEÑOR,"436981,6769","4474426,109",ETRS89 / UTM  Zona 30N,EN SERVICIO,,3-nov.-17,-3.7428145,40.418076,No match,,,"(None, None)",,4511488.69266442,"('40.418076', '-3.7428145')"
FB_000035,ZV,MONCLOA-ARAVACA,CASA DE CAMPO ZONA URBANA,FUENTE DEL CENTRO DE INFORMACION,"438062,4403","4474429,841",ETRS89 / UTM  Zona 30N,EN SERVICIO,,3-nov.-17,-3.7300766,40.4181907,No match,,,"(None, None)",,4511393.286655614,"('40.4181907', '-3.7300766')"
FUE_02-03_0000000039,VP,RETIRO,IBIZA Nº 16 ( EN EL BULEVAR),,"442610,5469","4474400,482",ETRS89 / UTM  Zona 30N,EN SERVICIO,,3-nov.-17,-3.6764677,40.4182523,No match,,,"(None, None)",,4510949.167394579,"('40.4182523', '-3.6764677')"
FB_000004,ZV,RETIRO,JARDINES DEL BUEN RETIRO,A. 12 · EL POVAR,"441846,65","4474411,3",ETRS89 / UTM  Zona 30N,EN SERVICIO,,3-nov.-17,-3.6854724,40.4182968,No match,,,"(None, None)",,4511029.383692546,"('40.4182968', '-3.6854724')"
FUE_02-03_0000000043,VP,RETIRO,ALCALA Nº 50,,"441316,5538","4474539,499",ETRS89 / UTM  Zona 30N,EN SERVICIO,,3-nov.-17,-3.6917323,40.4194144,No match,,,"(None, None)",,4511205.527745345,"('40.4194144', '-3.6917323')"
FB_000042,ZV,MONCLOA-ARAVACA,CASA DE CAMPO ZONA URBANA,FUENTE DEL PLATANO GORDO (EN PASEO DE LA TORRECILLA),"437762,0874","4474704,647",ETRS89 / UTM  Zona 30N,EN SERVICIO,,3-nov.-17,-3.7336435,40.4206439,No match,,,"(None, None)",,4511695.008670411,"('40.4206439', '-3.7336435')"
FUE_04-20_0000000064,ZV,SAN BLAS,ARCOS DE JALON - SAN ROMAN DEL VALLE,"SAN ROMAN DEL VALLE, 6",447247.85,4474706.77,ETRS89 / UTM  Zona 30N,EN SERVICIO,,3-nov.-17,-3.621835,40.4213185,No match,,,"(None, None)",,4510835.716840484,"('40.4213185', '-3.621835')"
FUE_01-01_0000000042,VP,CENTRO,PLAZA SANTA MARÍA SOLEDAD TORRES ACOSTA,"FRENTE A CALLE LUNA, 8","440151,64","4474817,1",ETRS89 / UTM  Zona 30N,EN SERVICIO,,3-nov.-17,-3.7054888,40.4218322,No match,,,"(None, None)",,4511588.683876767,"('40.4218322', '-3.7054888')"
FUE_01-09_0000000001,ZV,MONCLOA-ARAVACA,PLAZA ESPAÑA,PLAZA ESPAÑA,"439503,9271","4474906,253",ETRS89 / UTM  Zona 30N,EN SERVICIO,,3-nov.-17,-3.7131319,40.4225885,No match,,,"(None, None)",,4511736.772766176,"('40.4225885', '-3.7131319')"
FB_000066,ZV,SALAMANCA,QUINTA DE LA FUENTE DEL BERRO,A. 7 · PEÑASCALES,"443752,2","4474947,14",ETRS89 / UTM  Zona 30N,EN SERVICIO,,3-nov.-17,-3.6630599,40.4232549,No match,,,"(None, None)",,4511391.127645143,"('40.4232549', '-3.6630599')"
FUE_03-09_0000000094,ZV,MONCLOA-ARAVACA,Pº ANICETO MARINAS,C/ANICETO MARINAS 36,"438494,1692","4475050,164",ETRS89 / UTM  Zona 30N,EN SERVICIO,,3-nov.-17,-3.725048,40.4238109,No match,,,"(None, None)",,4511972.69869635,"('40.4238109', '-3.725048')"
FUE_02-04_0000000038,ZV,SALAMANCA,AVDA FELIPE II Nº 5,AVDA FELIPE II Nº 5,"442709,5834","4475055,859",ETRS89 / UTM  Zona 30N,EN SERVICIO,,3-nov.-17,-3.6753595,40.4241632,No match,,,"(None, None)",,4511594.15868414,"('40.4241632', '-3.6753595')"
FUE_02-04_0000000025,ZV,SALAMANCA,PZA. DE DALI,,"442884,628","4475062,161",ETRS89 / UTM  Zona 30N,EN SERVICIO,,3-nov.-17,-3.6732967,40.4242319,No match,,,"(None, None)",,4511584.549547945,"('40.4242319', '-3.6732967')"
FUE_04-20_0000000019,ZV,SAN BLAS,Pº GINEBRA,"GINEBRA, 13","448647,5402","4475062,395",ETRS89 / UTM  Zona 30N,EN SERVICIO,,3-nov.-17,-3.6053652,40.4246098,No match,,,"(None, None)",,4511064.888480282,"('40.4246098', '-3.6053652')"
FB_000045,ZV,MONCLOA-ARAVACA,CASA DE CAMPO ZONA URBANA,FUENTE DE LA GLORIETA DE LAS MORERAS,"437770,815","4475163,962",ETRS89 / UTM  Zona 30N,EN SERVICIO,,3-nov.-17,-3.7335856,40.4247822,No match,,,"(None, None)",,4512152.491998116,"('40.4247822', '-3.7335856')"
FUE_03-09_0000000119,VP,MONCLOA-ARAVACA,C/ RIBERA DE MANZANARES FRENTE AL Nº 123,FUENTE DE LA COLONIA MANZANARES  (FUENTE DE LA TEJA Y EL SOPAPO),"437633,69","4475220,96",ETRS89 / UTM  Zona 30N,EN SERVICIO,,3-nov.-17,-3.7352076,40.4252854,No match,,,"(None, None)",,4512221.933839583,"('40.4252854', '-3.7352076')"
FUE_01-01_0000000004,ZV,CENTRO,PLAZA VILLA DE PARIS,PLAZA VILLA DE PARIS,"441281,789","4475192,9",ETRS89 / UTM  Zona 30N,EN SERVICIO,,3-nov.-17,-3.6922023,40.4252981,No match,,,"(None, None)",,4511860.674076052,"('40.4252981', '-3.6922023')"
FUE_04-20_0000000085,ZV,SAN BLAS,PARQUE DE SAN BLAS - EL PARAISO,"ARCENTALES, 2","446875,5343","4475199,49",ETRS89 / UTM  Zona 30N,EN SERVICIO,,3-nov.-17,-3.6262647,40.4257335,No match,,,"(None, None)",,4511360.917351922,"('40.4257335', '-3.6262647')"
FUE_04-20_0000000095,ZV,SAN BLAS,PARQUE DE SAN BLAS - EL PARAISO,"AJOFRIN, 2","446936,1148","4475208,495",ETRS89 / UTM  Zona 30N,EN SERVICIO,,3-nov.-17,-3.6255514,40.4258185,No match,,,"(None, None)",,4511364.452805767,"('40.4258185', '-3.6255514')"
FUE_01-01_0000000045,ZV,CENTRO,JARDINES ARQUITECTO RIBERA,JUNTO ZONA INFANTIL,440651.51,4475261.61,ETRS89 / UTM  Zona 30N,EN SERVICIO,,3-nov.-17,-3.6996383,40.4258724,No match,,,"(None, None)",,4511986.645985176,"('40.4258724', '-3.6996383')"
FUE_01-09_0000000006,VP,MONCLOA-ARAVACA,PASEO DE PINTOR ROSALES Nº 16,ESQ C/ REY FRANCISCO,439045.75,4475290.37,ETRS89 / UTM  Zona 30N,EN SERVICIO,,3-nov.-17,-3.7185694,40.4260154,No match,,,"(None, None)",,4512161.9191057235,"('40.4260154', '-3.7185694')"
FUE_04-15_0000000097,ZV,CIUDAD LINEAL,JOSE ARCONES GIL,"JOSE ARCONES GIL, 126","446320,2406","4475315,161",ETRS89 / UTM  Zona 30N,EN SERVICIO,,3-nov.-17,-3.6328202,40.4267399,No match,,,"(None, None)",,4511526.360508385,"('40.4267399', '-3.6328202')"
FUE_04-20_0000000103,ZV,SAN BLAS,PARQUE PARAISO,AVD ARCENTALES 7 ,446999.10,4475323.66,ETRS89 / UTM  Zona 30N,EN SERVICIO,,3-nov.-17,-3.6248184,40.42686,No match,,,"(None, None)",,4511473.711126366,"('40.42686', '-3.6248184')"
FUE_02-04_0000000040,ZV,SALAMANCA,PARQUE RESIDENCIAL ISABEL II,CALLE RAMÓN AGUINAGA 2,443585.18,4475363.43,ETRS89 / UTM  Zona 30N,EN SERVICIO,,3-nov.-17,-3.6650656,40.4269937,No match,,,"(None, None)",,4511821.65704718,"('40.4269937', '-3.6650656')"
FUE_01-01_0000000001,ZV,CENTRO,PLAZA COMENDADORAS,PLAZA COMENDADORAS,"439892,4997","4475419,798",ETRS89 / UTM  Zona 30N,EN SERVICIO,,3-nov.-17,-3.7086003,40.4272429,No match,,,"(None, None)",,4512213.7074062545,"('40.4272429', '-3.7086003')"
FUE_03-09_0000000030,ZV,MONCLOA-ARAVACA,PARQUE DE LA BOMBILLA,JUNTOO A JUEGOS INFANTILES,"438260,9317","4475477,582",ETRS89 / UTM  Zona 30N,EN SERVICIO,,3-nov.-17,-3.7278388,40.427644,No match,,,"(None, None)",,4512420.520455163,"('40.427644', '-3.7278388')"
FB_000048,ZV,MONCLOA-ARAVACA,CASA DE CAMPO ZONA FORESTAL,FUENTE DE CUATRO GRIFOS DEL PASEO DE LOS PIÐONEROS,"437554,7235","4475502,2",ETRS89 / UTM  Zona 30N,EN SERVICIO,,3-nov.-17,-3.7361661,40.427813,No match,,,"(None, None)",,4512509.785225599,"('40.427813', '-3.7361661')"
FB_000049,ZV,MONCLOA-ARAVACA,CASA DE CAMPO ZONA FORESTAL,FUENTE METALICA DEL PASEO DE LOS PIÑONEROS,"437513,9287","4475552,651",ETRS89 / UTM  Zona 30N,EN SERVICIO,,3-nov.-17,-3.7366519,40.4282645,No match,,,"(None, None)",,4512563.8724012105,"('40.4282645', '-3.7366519')"
FUE_04-15_0000000088,ZV,CIUDAD LINEAL,AVDA. MARQUES DE CORBERA - SAN CLODOALDO,"HERMANOS GOMEZ, 50","444929,6116","4475508,917",ETRS89 / UTM  Zona 30N,EN SERVICIO,,3-nov.-17,-3.6492299,40.4283945,No match,,,"(None, None)",,4511845.199085983,"('40.4283945', '-3.6492299')"
FUE_01-07_0000000007,ZV,CHAMBERÍ,"PO CASTELLANA, DE LA Nº:19",PASEO DE LA CASTELLANA IV,"441497,1641","4475576,983",ETRS89 / UTM  Zona 30N,EN SERVICIO,,3-nov.-17,-3.6896989,40.4287733,No match,,,"(None, None)",,4512224.327600827,"('40.4287733', '-3.6896989')"
FUE_02-04_0000000039,ZV,SALAMANCA,PARQUE SANCHO DÁVILA,ENTRADA POR PLAZA AMÉRICA ESPAÑOLA,"443883,2367","4475591,451",ETRS89 / UTM  Zona 30N,EN SERVICIO,,3-nov.-17,-3.6615722,40.429068,No match,,,"(None, None)",,4512022.197129174,"('40.429068', '-3.6615722')"
FUE_02-04_0000000024,ZV,SALAMANCA,PARQUE DE MARIA EVA DUARTE DE PERON,,"443271,7044","4475605,179",ETRS89 / UTM  Zona 30N,EN SERVICIO,,3-nov.-17,-3.6687825,40.4291502,No match,,,"(None, None)",,4512091.303351867,"('40.4291502', '-3.6687825')"
FUE_04-15_0000000121,VP,CIUDAD LINEAL,C/ LUIS RUIZ 48,EN TRAMO PEATONAL GREGORIO DONAS,445919.23,4475595.46,ETRS89 / UTM  Zona 30N,FUERA DE SERVICIO,DEFICIENCIA ESTRUCTURAL,3-nov.-17,-3.6375712,40.429239,No match,,,"(None, None)",,4511842.222158367,"('40.429239', '-3.6375712')"
FUE_04-20_0000000110,ZV,SAN BLAS,PARQUE PARAISO,"AV ARCENTALES Nº 4, JUNTO A AUDITORIO",447225.57,4475667.98,ETRS89 / UTM  Zona 30N,EN SERVICIO,,3-nov.-17,-3.6221774,40.4299762,No match,,,"(None, None)",,4511796.941548843,"('40.4299762', '-3.6221774')"
FB_000057,ZV,MONCLOA-ARAVACA,CASA DE CAMPO ZONA FORESTAL,FUENTE DE LA CARRETERA DE GARAVITAS (CURVA DE LA MUERTE),"437410,3293","4475762,099",ETRS89 / UTM  Zona 30N,EN SERVICIO,,3-nov.-17,-3.7378937,40.4301435,No match,,,"(None, None)",,4512782.351052784,"('40.4301435', '-3.7378937')"
FUE_04-15_0000000031,ZV,CIUDAD LINEAL,PAR VITAL AZA - CAROLINA CORONADO,"CAROLINA CORONADO, 26","445341,0006","4475751,13",ETRS89 / UTM  Zona 30N,EN SERVICIO,,3-nov.-17,-3.6444011,40.4306036,No match,,,"(None, None)",,4512049.743725152,"('40.4306036', '-3.6444011')"
FUE_02-04_0000000026,ZV,SALAMANCA,JARDIN DE LA VIRGEN DEL PILAR,C/GENERAL PARDIÑAS CV C/JUAN BRAVO,"442498,1789","4475963,332",ETRS89 / UTM  Zona 30N,EN SERVICIO,,3-nov.-17,-3.6779335,40.4323235,No match,,,"(None, None)",,4512518.864408836,"('40.4323235', '-3.6779335')"
FUE_04-20_0000000107,ZV,SAN BLAS,AVDA. DE ARCENTALES - MIGUEL YUSTE,"C/ DE MIGUEL YUSTE, 51","447294,55","4476052,422",ETRS89 / UTM  Zona 30N,EN SERVICIO,,3-nov.-17,-3.6213961,40.4334438,No match,,,"(None, None)",,4512174.380487819,"('40.4334438', '-3.6213961')"
FUE_04-20_0000000090,ZV,SAN BLAS,PARQUE DE SAN BLAS - EL PARAISO,"ALBAIDA, 34","447560,5002","4476065,9",ETRS89 / UTM  Zona 30N,EN SERVICIO,,3-nov.-17,-3.6182618,40.4335821,No match,,,"(None, None)",,4512163.929747605,"('40.4335821', '-3.6182618')"
FB_000096,ZV,MONCLOA-ARAVACA,CASA DE CAMPO ZONA FORESTAL,FUENTE DE LA SUBESTACIÓN,"437067,9674","4476154,004",ETRS89 / UTM  Zona 30N,EN SERVICIO,,3-nov.-17,-3.7419684,40.433648,No match,,,"(None, None)",,4513204.773514082,"('40.433648', '-3.7419684')"
FB_000061,ZV,MONCLOA-ARAVACA,CASA DE CAMPO ZONA FORESTAL,FUENTE DEL ESTANQUE DEL REPARTIDOR,"436756,5968","4476178,079",ETRS89 / UTM  Zona 30N,EN SERVICIO,,3-nov.-17,-3.7456416,40.4338413,No match,,,"(None, None)",,4513257.381165728,"('40.4338413', '-3.7456416')"
FUE_04-20_0000000093,ZV,SAN BLAS,AMPL. PARQUE EL PARAISO,"ALBAIDA, 94","447970,4677","4476120,33",ETRS89 / UTM  Zona 30N,EN SERVICIO,,3-nov.-17,-3.613433,40.4340982,No match,,,"(None, None)",,4512181.4191901805,"('40.4340982', '-3.613433')"
FUE_04-15_0000000056,ZV,CIUDAD LINEAL,PZA. VIRGEN DEL CORO,"VIRGEN DE LA ROCA, 6","444202,6708","4476149,887",ETRS89 / UTM  Zona 30N,EN SERVICIO,,3-nov.-17,-3.6578556,40.4341202,No match,,,"(None, None)",,4512550.538431522,"('40.4341202', '-3.6578556')"
FUE_04-15_0000000123,ZV,CIUDAD LINEAL,PARQUE EL CALERO,JUNTO ÁREA CANINA,444726.65,4476271.89,ETRS89 / UTM  Zona 30N,FUERA DE SERVICIO,DEFICIENCIA ESTRUCTURAL,3-nov.-17,-3.6516888,40.4352543,No match,,,"(None, None)",,4512624.904370931,"('40.4352543', '-3.6516888')"
FUE_04-15_0000000058,ZV,CIUDAD LINEAL,PZA. VIRGEN DE LA ROCA,"VIRGEN DE LA ROCA, 20","444227,5389","4476292,391",ETRS89 / UTM  Zona 30N,EN SERVICIO,,3-nov.-17,-3.6575749,40.4354056,No match,,,"(None, None)",,4512690.48828974,"('40.4354056', '-3.6575749')"
FUE_04-15_0000000087,ZV,CIUDAD LINEAL,ARTURO SORIA,"ARTURO SORIA, 10","445844,051","4476658,861",ETRS89 / UTM  Zona 30N,EN SERVICIO,,3-nov.-17,-3.6385481,40.4388138,No match,,,"(None, None)",,4512910.179566196,"('40.4388138', '-3.6385481')"
FUE_04-15_0000000086,ZV,CIUDAD LINEAL,ARTURO SORIA,"ARTURO SORIA, 18","445769,3566","4476796,655",ETRS89 / UTM  Zona 30N,EN SERVICIO,,3-nov.-17,-3.6394405,40.4400503,No match,,,"(None, None)",,4513054.426121776,"('40.4400503', '-3.6394405')"
FUE_02-05_0000000076,VP,CHAMARTIN,CALLE CORAZÓN DE MARÍA,FRENTE AL Nº 9,"443202,28","4476968,4",ETRS89 / UTM  Zona 30N,EN SERVICIO,,3-nov.-17,-3.6697227,40.4414261,No match,,,"(None, None)",,4513457.911965676,"('40.4414261', '-3.6697227')"
FB_000044,ZV,SAN BLAS,QUINTA DE LOS MOLINOS,ALMENDROS POLIDEPORTIVO,"446881,84","4476942,01",ETRS89 / UTM  Zona 30N,EN SERVICIO,,3-nov.-17,-3.626336,40.4414315,No match,,,"(None, None)",,4513099.2574121235,"('40.4414315', '-3.626336')"
FUE_02-04_0000000017,ZV,SALAMANCA,BERLIN - BRISTOL,C/ BERLÍN Nº 8,"443859,9013","4477044,378",ETRS89 / UTM  Zona 30N,EN SERVICIO,,3-nov.-17,-3.6619757,40.4421552,No match,,,"(None, None)",,4513474.156970737,"('40.4421552', '-3.6619757')"
FUE_02-05_0000000017,ZV,CHAMARTIN,PZA. C/ GABRIEL LOBO,CALLE GAGRIEL LOBO CV DUQUE DE SEVILLA,"442269,0676","4477120,417",ETRS89 / UTM  Zona 30N,EN SERVICIO,,3-nov.-17,-3.6807396,40.4427313,No match,,,"(None, None)",,4513694.273900925,"('40.4427313', '-3.6807396')"
FUE_04-20_0000000075,ZV,SAN BLAS,PAR ESFINGE,"NECTAR, 32","448220,6976","4477097,078",ETRS89 / UTM  Zona 30N,EN SERVICIO,,3-nov.-17,-3.6105625,40.442913,No match,,,"(None, None)",,4513133.708462567,"('40.442913', '-3.6105625')"
FUE_04-20_0000000109,VP,SAN BLAS,PLAZA BARBADOS,"C/V CALLE LÓPEZ DE ARANDA, FRENTE Nº 29 ","446182,05","4477255,77",ETRS89 / UTM  Zona 30N,EN SERVICIO,,3-nov.-17,-3.6346136,40.4442131,No match,,,"(None, None)",,4513475.384572072,"('40.4442131', '-3.6346136')"
FUE_02-05_0000000027,ZV,CHAMARTIN,"PADRE CLARET, 7-9",,"443569,9173","4477460,164",ETRS89 / UTM  Zona 30N,EN SERVICIO,,3-nov.-17,-3.6654317,40.4458811,No match,,,"(None, None)",,4513915.306702161,"('40.4458811', '-3.6654317')"
FUE_04-15_0000000083,ZV,CIUDAD LINEAL,ARTURO SORIA,"ARTURO SORIA, 77","445044,1756","4477457,359",ETRS89 / UTM  Zona 30N,FUERA DE SERVICIO,NO APTA CONSUMO,3-nov.-17,-3.6480478,40.4459547,No match,,,"(None, None)",,4513779.192087849,"('40.4459547', '-3.6480478')"
FB_000043,ZV,SAN BLAS,QUINTA DE LOS MOLINOS,CIPRESES ,"446569,84","4477512,41",ETRS89 / UTM  Zona 30N,EN SERVICIO,,3-nov.-17,-3.6300627,40.44655,No match,,,"(None, None)",,4513696.557224637,"('40.44655', '-3.6300627')"
FUE_04-15_0000000082,ZV,CIUDAD LINEAL,ARTURO SORIA,"ARTURO SORIA, 120","444886,0552","4477685,047",ETRS89 / UTM  Zona 30N,EN SERVICIO,,3-nov.-17,-3.649932,40.4479953,No match,,,"(None, None)",,4514020.674296648,"('40.4479953', '-3.649932')"
FUE_01-06_0000000080,VP,TETUÁN,"CL HERNANI, 18",ESQUINA C/ ISTURIZ,"440449,372","4477750,648",ETRS89 / UTM  Zona 30N,EN SERVICIO,,3-nov.-17,-3.7022543,40.4482803,No match,,,"(None, None)",,4514488.667351369,"('40.4482803', '-3.7022543')"
FUE_04-15_0000000119,ZV,CIUDAD LINEAL,COL. PARQUE SAN JUAN BAUTISTA ,"TORRELAGUNA, 81","444261,5751","4477748,476",ETRS89 / UTM  Zona 30N,EN SERVICIO,,3-nov.-17,-3.6573013,40.4485251,No match,,,"(None, None)",,4514140.416311915,"('40.4485251', '-3.6573013')"
FUE_02-05_0000000050,ZV,CHAMARTIN,PARQUE DE BERLIN,C/SAN ERNESTO Nº 10 ,"442699,514","4477862,009",ETRS89 / UTM  Zona 30N,EN SERVICIO,,3-nov.-17,-3.6757313,40.4494416,No match,,,"(None, None)",,4514395.193626202,"('40.4494416', '-3.6757313')"
FUE_04-20_0000000007,ZV,SAN BLAS,CIUDAD PEGASO - Z.A.+ Z.F.,"UNO, 4","449668,6039","4477823,171",ETRS89 / UTM  Zona 30N,EN SERVICIO,,3-nov.-17,-3.5935478,40.4495429,No match,,,"(None, None)",,4513728.58111419,"('40.4495429', '-3.5935478')"
FUE_01-06_0000000081,ZV,TETUÁN,PLAZA PABLO RUÍZ PICASSO,JUNTO A FUENTE ORNAMENTAL,"441217,8872","4477903,053",ETRS89 / UTM  Zona 30N,EN SERVICIO,,3-nov.-17,-3.6932063,40.4497079,No match,,,"(None, None)",,4514570.758967682,"('40.4497079', '-3.6932063')"
FUE_02-05_0000000041,ZV,CHAMARTIN,PARQUE DE BERLIN,C/DOCTOR MARCO CORERA Nº2,"442630,7821","4477952,86",ETRS89 / UTM  Zona 30N,EN SERVICIO,,3-nov.-17,-3.6765499,40.4502553,No match,,,"(None, None)",,4514492.085931938,"('40.4502553', '-3.6765499')"
FUE_04-15_0000000081,ZV,CIUDAD LINEAL,ARTURO SORIA,"ARTURO SORIA, 130","444729,7452","4477961,051",ETRS89 / UTM  Zona 30N,EN SERVICIO,,3-nov.-17,-3.6517992,40.4504713,No match,,,"(None, None)",,4514310.216771375,"('40.4504713', '-3.6517992')"
FUE_04-15_0000000023,ZV,CIUDAD LINEAL,Z.V. COL. PARQUE SAN JUAN BAUTISTA,"CIDAMON, 11","444314,7773","4478022,726",ETRS89 / UTM  Zona 30N,EN SERVICIO,,3-nov.-17,-3.656698,40.4509993,No match,,,"(None, None)",,4514409.280385119,"('40.4509993', '-3.656698')"
FUE_02-05_0000000071,VP,CHAMARTIN,C/BOLIVIA FRENTE AL Nº 14,,"443405,0661","4478045,476",ETRS89 / UTM  Zona 30N,FUERA DE SERVICIO,DEFICIENCIA ESTRUCTURAL,3-nov.-17,-3.6674276,40.4511428,No match,,,"(None, None)",,4514514.3171056025,"('40.4511428', '-3.6674276')"
FUE_02-05_0000000069,VP,CHAMARTIN,PL VIRGEN DE GUADALUPANA Nº 1,,"442778,1837","4478090,399",ETRS89 / UTM  Zona 30N,FUERA DE SERVICIO,DEFICIENCIA ESTRUCTURAL,3-nov.-17,-3.6748242,40.4515045,No match,,,"(None, None)",,4514615.961617554,"('40.4515045', '-3.6748242')"
FUE_02-05_0000000014,ZV,CHAMARTIN,PARQUE FELIX RGUEZ. DE LA FUENTE,CALLE DEL PADRE CLARET N º32,"443682,2042","4478192,976",ETRS89 / UTM  Zona 30N,EN SERVICIO,,3-nov.-17,-3.6641727,40.4524903,No match,,,"(None, None)",,4514636.397216155,"('40.4524903', '-3.6641727')"
FUE_04-21_0000000038,ZV,BARAJAS,PARQUE BIOSALUDABLE,"ALAMEDA DE OSUNA, 50",449340.3151,"4478212,024",ETRS89 / UTM  Zona 30N,FUERA DE SERVICIO,NO APTA CONSUMO,3-nov.-17,-3.59745,40.453026,No match,,,"(None, None)",,4514146.027040174,"('40.453026', '-3.59745')"
FUE_01-06_0000000074,VP,TETUÁN,CL BRAVO MURILLO Nº:188,C/ BRAVO MURILLO C/V C/ MERCEDES,"440418,6223","4478450,604",ETRS89 / UTM  Zona 30N,EN SERVICIO,,3-nov.-17,-3.7026826,40.4545836,No match,,,"(None, None)",,4515189.896201191,"('40.4545836', '-3.7026826')"
FUE_04-16_0000000088,ZV,HORTALEZA,A.V.C. AVDA. DE LOGROÑO - M-40 Z.F.N.C.,"LUIS DE LA MATA, 41","447959,6427","4478515,995",ETRS89 / UTM  Zona 30N,EN SERVICIO,,3-nov.-17,-3.6137569,40.4556791,No match,,,"(None, None)",,4514573.144327057,"('40.4556791', '-3.6137569')"
FUE_02-05_0000000072,VP,CHAMARTIN,AVDA ALFONSO XIII 36,,"442507,6378","4478684,519",ETRS89 / UTM  Zona 30N,EN SERVICIO,,3-nov.-17,-3.6780683,40.4568379,No match,,,"(None, None)",,4515233.345761529,"('40.4568379', '-3.6780683')"
FB_120025,ZV,BARAJAS,JUAN CARLOS I,B.05 · CABALLÓN 1,"448904,25","4478660,53",ETRS89 / UTM  Zona 30N,EN SERVICIO,,3-nov.-17,-3.6026285,40.4570397,No match,,,"(None, None)",,4514632.670587639,"('40.4570397', '-3.6026285')"
FUE_03-09_0000000116,VP,MONCLOA-ARAVACA,CL PEREZ DE VICTORIA,JUNTO A LA PARROQUIA DE LA ASUNCIÓN DE NUESTRA SEÑORA,"433593,3767","4478806,425",ETRS89 / UTM  Zona 30N,EN SERVICIO,,3-nov.-17,-3.7832076,40.4572717,No match,,,"(None, None)",,4516171.016912211,"('40.4572717', '-3.7832076')"
FB_120032,ZV,BARAJAS,JUAN CARLOS I,B.10 · PINAR DE VERANO,"448535,67","4478696,2",ETRS89 / UTM  Zona 30N,EN SERVICIO,,3-nov.-17,-3.6069783,40.4573383,No match,,,"(None, None)",,4514701.301100559,"('40.4573383', '-3.6069783')"
FUE_03-09_0000000109,VP,MONCLOA-ARAVACA,CL FRANCOS RODRIGUEZ Nº:106,,"439323,0252","4478918,503",ETRS89 / UTM  Zona 30N,EN SERVICIO,,3-nov.-17,-3.7156474,40.4587193,No match,,,"(None, None)",,4515756.695536107,"('40.4587193', '-3.7156474')"
FUE_04-15_0000000077,ZV,CIUDAD LINEAL,ARTURO SORIA,"ARTURO SORIA, 198","444087,9235","4478902,225",ETRS89 / UTM  Zona 30N,EN SERVICIO,,3-nov.-17,-3.6594507,40.458907,No match,,,"(None, None)",,4515307.430036676,"('40.458907', '-3.6594507')"
FUE_04-21_0000000005,ZV,BARAJAS,PARQUE MARI LUZ NAJERA,"BERGANTIN, 26","450596,1829","4478865,053",ETRS89 / UTM  Zona 30N,FUERA DE SERVICIO,DEFICIENCIA ESTRUCTURAL,3-nov.-17,-3.5826907,40.4589845,No match,,,"(None, None)",,4514685.471722908,"('40.4589845', '-3.5826907')"
FUE_03-09_0000000110,VP,MONCLOA-ARAVACA,CL FRANCOS RODRIGUEZ Nº:83,,"439076,0105","4478997,952",ETRS89 / UTM  Zona 30N,EN SERVICIO,,3-nov.-17,-3.7185683,40.459417,No match,,,"(None, None)",,4515858.537284601,"('40.459417', '-3.7185683')"
FUE_02-05_0000000075,ZV,CHAMARTIN,C/PARAGUAY Nº 9,,"443024,59","4479008,41",ETRS89 / UTM  Zona 30N,EN SERVICIO,,3-nov.-17,-3.6720008,40.4597913,No match,,,"(None, None)",,4515509.664216254,"('40.4597913', '-3.6720008')"
FB_120019,ZV,BARAJAS,JUAN CARLOS I,B.01 · 4 ESTACIONES,"449577,77","4479060,02",ETRS89 / UTM  Zona 30N,EN SERVICIO,,3-nov.-17,-3.5947171,40.4606797,No match,,,"(None, None)",,4514971.057537736,"('40.4606797', '-3.5947171')"
FUE_04-16_0000000049,ZV,HORTALEZA,PARQUE LOS LLANOS,"DIONISIO INCA YUPANQUI, 23","446428,3291","4479177,172",ETRS89 / UTM  Zona 30N,EN SERVICIO,,3-nov.-17,-3.6318718,40.461538,No match,,,"(None, None)",,4515370.603855828,"('40.461538', '-3.6318718')"
FUE_04-16_0000000151,ZV,HORTALEZA,ALCORISA-SILVANO,C/ ALCORISA FTE 47,"445832,5833","4479402,462",ETRS89 / UTM  Zona 30N,FUERA DE SERVICIO,DEFICIENCIA ESTRUCTURAL,3-nov.-17,-3.6389174,40.4635289,No match,,,"(None, None)",,4515649.085975598,"('40.4635289', '-3.6389174')"
FB_120011,ZV,BARAJAS,JUAN CARLOS I,D.04 · TRES CULTURAS,"448753,85","4479516,85",ETRS89 / UTM  Zona 30N,EN SERVICIO,,3-nov.-17,-3.6044714,40.4647447,No match,,,"(None, None)",,4515500.726023236,"('40.4647447', '-3.6044714')"
FUE_01-06_0000000064,VP,TETUÁN,"CL MIOSOTIS, DEL Nº:24",,"440653,09","4479585,586",ETRS89 / UTM  Zona 30N,EN SERVICIO,,3-nov.-17,-3.7000237,40.4648248,No match,,,"(None, None)",,4516301.046517164,"('40.4648248', '-3.7000237')"
FB_120015,ZV,BARAJAS,JUAN CARLOS I,D.05 · PINAR DE LAS TRES CULTURAS,"448892,4","4479533,32",ETRS89 / UTM  Zona 30N,EN SERVICIO,,3-nov.-17,-3.6028386,40.4649016,No match,,,"(None, None)",,4515504.750174645,"('40.4649016', '-3.6028386')"
FUE_03-09_0000000112,ZV,MONCLOA-ARAVACA,CAMINO DE LA ZARZUELA 25,,"433251,7917","4479710,473",ETRS89 / UTM  Zona 30N,EN SERVICIO,,3-nov.-17,-3.7873311,40.4653881,No match,,,"(None, None)",,4517104.51197637,"('40.4653881', '-3.7873311')"
FUE_03-09_0000000111,ZV,MONCLOA-ARAVACA,CAMINO DE LA ZARZUELA 25,,"433279,2635","4479714,43",ETRS89 / UTM  Zona 30N,EN SERVICIO,,3-nov.-17,-3.7870075,40.465426,No match,,,"(None, None)",,4517105.927095216,"('40.465426', '-3.7870075')"
FUE_03-09_0000000113,ZV,MONCLOA-ARAVACA,CAMINO DE LA ZARZUELA 25,,"433208,8151","4479722,894",ETRS89 / UTM  Zona 30N,EN SERVICIO,,3-nov.-17,-3.7878392,40.4654965,No match,,,"(None, None)",,4517120.869938865,"('40.4654965', '-3.7878392')"
FUE_04-21_0000000050,VP,BARAJAS,"C/BOIRO,55",MARQUES DE BERNA 20,"450285,6727","4479661,355",ETRS89 / UTM  Zona 30N,FUERA DE SERVICIO,DEFICIENCIA ESTRUCTURAL,3-nov.-17,-3.5864152,40.4661396,No match,,,"(None, None)",,4515507.908742407,"('40.4661396', '-3.5864152')"
FUE_01-06_0000000070,VP,TETUÁN,CL GARCI-NUÑO Nº:4,C/ GARCI-NUÑO C/V C/ ANTONIO LANZUELA,"440542,6342","4479762,845",ETRS89 / UTM  Zona 30N,EN SERVICIO,,3-nov.-17,-3.7013431,40.4664137,No match,,,"(None, None)",,4516487.974852823,"('40.4664137', '-3.7013431')"
FUE_02-05_0000000068,VP,CHAMARTIN,"C/ MATEO INURRIA, Nº 19",,"442019,6019","4479846,52",ETRS89 / UTM  Zona 30N,EN SERVICIO,,3-nov.-17,-3.68393,40.4672718,No match,,,"(None, None)",,4516437.144625288,"('40.4672718', '-3.68393')"
FUE_04-16_0000000042,ZV,HORTALEZA,PZA. GOLMAYO,"GOLMAYO, 17","443882,6755","4479832,98",ETRS89 / UTM  Zona 30N,EN SERVICIO,,3-nov.-17,-3.6619535,40.4672778,No match,,,"(None, None)",,4516254.770368882,"('40.4672778', '-3.6619535')"
FUE_04-16_0000000150,ZV,HORTALEZA,"AÑASTRO, 21",INTERBLOQUE C/ RAMONET 16,443845,"4479990,11",ETRS89 / UTM  Zona 30N,EN SERVICIO,,3-nov.-17,-3.6624119,40.4686908,No match,,,"(None, None)",,4516414.981109105,"('40.4686908', '-3.6624119')"
FUE_04-16_0000000121,ZV,HORTALEZA,PARQUE SAN LORENZO,"MACUAJE, 5","446378,2271","4480083,578",ETRS89 / UTM  Zona 30N,EN SERVICIO,,3-nov.-17,-3.6325392,40.4697002,No match,,,"(None, None)",,4516279.640692676,"('40.4697002', '-3.6325392')"
FUE_03-08_0000000150,ZV,FUENCARRAL-EL PARDO,C/JOAQUÍN LORENZO FRENTE AL Nº 32,EN EL PARQUE DE ENFRENTE,"438289,81","4480391,65",ETRS89 / UTM  Zona 30N,EN SERVICIO,,3-nov.-17,-3.7279759,40.4719139,No match,,,"(None, None)",,4517321.010087529,"('40.4719139', '-3.7279759')"
FUE_04-16_0000000003,ZV,HORTALEZA,JARDIN BUCARAMANGA,"BUCARAMANGA, 2","445826,7418","4480391,514",ETRS89 / UTM  Zona 30N,FUERA DE SERVICIO,DEFICIENCIA ESTRUCTURAL,3-nov.-17,-3.6390707,40.4724384,No match,,,"(None, None)",,4516636.59764739,"('40.4724384', '-3.6390707')"
FUE_01-06_0000000024,ZV,TETUÁN,AVDA. ASTURIAS-PERGOLAS,AVDA. ASTURIAS-PERGOLAS,"440663,5598","4480472,609",ETRS89 / UTM  Zona 30N,EN SERVICIO,,3-nov.-17,-3.6999831,40.4728162,No match,,,"(None, None)",,4517185.180017053,"('40.4728162', '-3.6999831')"
FUE_03-08_0000000062,ZV,FUENCARRAL-EL PARDO,PARQUE DE LA ALCAZABA,CALLE RIBADAVIA 27,"440030,5999","4480481,601",ETRS89 / UTM  Zona 30N,FUERA DE SERVICIO,DEFICIENCIA ESTRUCTURAL,3-nov.-17,-3.7074504,40.4728517,No match,,,"(None, None)",,4517251.808062035,"('40.4728517', '-3.7074504')"
FUE_03-08_0000000152,ZV,FUENCARRAL-EL PARDO,PARQUE DE LA ALCAZABA,CALLE RIBADAVIA 45,"440099,6436","4480526,667",ETRS89 / UTM  Zona 30N,EN SERVICIO,,3-nov.-17,-3.7066402,40.4732627,No match,,,"(None, None)",,4517290.487162745,"('40.4732627', '-3.7066402')"
FUE_04-16_0000000087,ZV,HORTALEZA,CUBIERTA SAN LORENZO,"CHUCURI, 12","446280,6609","4480492,078",ETRS89 / UTM  Zona 30N,EN SERVICIO,,3-nov.-17,-3.6337247,40.4733739,No match,,,"(None, None)",,4516696.077430091,"('40.4733739', '-3.6337247')"
FUE_03-08_0000000053,ZV,FUENCARRAL-EL PARDO,POL. 24 V.V.V.,C/JUAN SÁNCHEZ C/V C/CÉSAR MANRIQUE,"438929,6158","4480618,053",ETRS89 / UTM  Zona 30N,EN SERVICIO,,3-nov.-17,-3.7204507,40.4740007,No match,,,"(None, None)",,4517488.426636748,"('40.4740007', '-3.7204507')"
FUE_03-08_0000000138,VP,FUENCARRAL-EL PARDO,AV MONFORTE DE LEMOS Nº:195,,"438890,8276","4480795,564",ETRS89 / UTM  Zona 30N,EN SERVICIO,,3-nov.-17,-3.7209253,40.4755969,No match,,,"(None, None)",,4517669.084520628,"('40.4755969', '-3.7209253')"
FUE_03-08_0000000127,ZV,FUENCARRAL-EL PARDO,PARQUE DE LA ALCAZABA,C/MELCHOR FDEZ. ALMAGOR Nº52 ,"440217,9924","4480814,83",ETRS89 / UTM  Zona 30N,EN SERVICIO,,3-nov.-17,-3.7052713,40.4758671,No match,,,"(None, None)",,4517567.233201174,"('40.4758671', '-3.7052713')"
FUE_04-15_0000000059,ZV,CIUDAD LINEAL,PARQUE ANEMONAS,"GOLFO DE SALONICA, 19","443477,2104","4480919,478",ETRS89 / UTM  Zona 30N,EN SERVICIO,,3-nov.-17,-3.6668329,40.477038,No match,,,"(None, None)",,4517375.653626608,"('40.477038', '-3.6668329')"
FUE_03-08_0000000154,VP,FUENCARRAL-EL PARDO,CALLE MONFORTE DE LEMOS 34,,439950.08,4481131.74,ETRS89 / UTM  Zona 30N,EN SERVICIO,,3-nov.-17,-3.7084618,40.4787026,No match,,,"(None, None)",,4517907.863532699,"('40.4787026', '-3.7084618')"
FUE_03-08_0000000129,ZV,FUENCARRAL-EL PARDO,PARQUE DEL NORTE,CALLE ARZOBISPO MORCILLO Nº 14,"440975,5979","4481315,258",ETRS89 / UTM  Zona 30N,EN SERVICIO,,3-nov.-17,-3.6963807,40.4804293,No match,,,"(None, None)",,4517997.59139019,"('40.4804293', '-3.6963807')"
FUE_04-15_0000000036,ZV,CIUDAD LINEAL,PINAR DE CHAMARTIN,"CALERUEGA, 32","443249,0534","4481380,15",ETRS89 / UTM  Zona 30N,EN SERVICIO,,3-nov.-17,-3.6695657,40.4811724,No match,,,"(None, None)",,4517856.003661334,"('40.4811724', '-3.6695657')"
FUE_03-08_0000000042,ZV,FUENCARRAL-EL PARDO,BETANZOS - FERMIN CABALLERO,AVDA. DE BETANZOS  Nº60,"439508,1466","4481410,69",ETRS89 / UTM  Zona 30N,EN SERVICIO,,3-nov.-17,-3.7137018,40.4811834,No match,,,"(None, None)",,4518226.500007586,"('40.4811834', '-3.7137018')"
FUE_04-15_0000000035,ZV,CIUDAD LINEAL,PINAR DE CHAMARTIN,"CALERUEGA, 112","443312,7554","4481408,649",ETRS89 / UTM  Zona 30N,EN SERVICIO,,3-nov.-17,-3.6688167,40.4814335,No match,,,"(None, None)",,4517878.675293561,"('40.4814335', '-3.6688167')"
FUE_03-08_0000000130,ZV,FUENCARRAL-EL PARDO,PZA. - C/ ISLA AROSA C/ FERMIN CABALLERO,C/ISLA DE AROSA  Nº20,"439295,6311","4481446,963",ETRS89 / UTM  Zona 30N,EN SERVICIO,,3-nov.-17,-3.7162125,40.4814946,No match,,,"(None, None)",,4518282.08002507,"('40.4814946', '-3.7162125')"
FUE_04-15_0000000037,ZV,CIUDAD LINEAL,PINAR DE CHAMARTIN,"BRIVIESCA, 5","443441,0853","4481457,136",ETRS89 / UTM  Zona 30N,EN SERVICIO,,3-nov.-17,-3.667307,40.481879,No match,,,"(None, None)",,4517915.43566532,"('40.481879', '-3.667307')"
FUE_03-08_0000000041,ZV,FUENCARRAL-EL PARDO,PZA. DE LA CAROLINA,,"439377,8222","4481512,742",ETRS89 / UTM  Zona 30N,EN SERVICIO,,3-nov.-17,-3.7152491,40.4820932,No match,,,"(None, None)",,4518340.216750936,"('40.4820932', '-3.7152491')"
FUE_04-15_0000000120,ZV,CIUDAD LINEAL,"CALLE JAZMIN, 49. JUNTO ÁREA INFANTIL","444001,44","443892,05",4481542.01,ETRS89 / UTM  Zona 30N,EN SERVICIO,,3-nov.-17,-3.6619942,40.4826742,No match,,,"(None, None)",,4517959.328583732,"('40.4826742', '-3.6619942')"
FB_000100,ZV,HORTALEZA,PARQUE FORESTAL DE VALDEBEBAS-PARQUE FELIPE VI,,"446894,495","4481770,608",ETRS89 / UTM  Zona 30N,EN SERVICIO,,3-nov.-17,-3.6265908,40.484931,No match,,,"(None, None)",,4517916.730202002,"('40.484931', '-3.6265908')"
FUE_04-16_0000000116,ZV,HORTALEZA,PARQUE EN C/ INFANTA CATALINA MICAELA,"INFANTA CATALINA MICAELA, 3","444213,0815","4481873,245",ETRS89 / UTM  Zona 30N,EN SERVICIO,,3-nov.-17,-3.6582359,40.4856798,No match,,,"(None, None)",,4518260.844143537,"('40.4856798', '-3.6582359')"
FUE_04-21_0000000051,VP,BARAJAS,VALDEBEBAS - CONECTOR FERNANDO HIGUERAS ,C/ JULIO CANO LASSO Nº 4 CV C/ FERNANDO HIGUERAS.,"448696,23","4481911,5",ETRS89 / UTM  Zona 30N,EN SERVICIO,,3-nov.-17,-3.6053448,40.4863135,No match,,,"(None, None)",,4517895.66159139,"('40.4863135', '-3.6053448')"
FB_000089,ZV,HORTALEZA,PARQUE FORESTAL DE VALDEBEBAS-PARQUE FELIPE VI,,"446989,4416","4482122,241",ETRS89 / UTM  Zona 30N,EN SERVICIO,,3-nov.-17,-3.6255001,40.4881047,No match,,,"(None, None)",,4518259.096482354,"('40.4881047', '-3.6255001')"
FB_000088,ZV,HORTALEZA,PARQUE FORESTAL DE VALDEBEBAS-PARQUE FELIPE VI,,"447085,8489","4482250,897",ETRS89 / UTM  Zona 30N,EN SERVICIO,,3-nov.-17,-3.6243733,40.4892699,No match,,,"(None, None)",,4518378.828672027,"('40.4892699', '-3.6243733')"
FUE_04-16_0000000142,ZV,HORTALEZA,PARQUE INFANTA CATALINA MICAELA,"PRINCIPE CARLOS, 13","444749,6123","4482284,494",ETRS89 / UTM  Zona 30N,EN SERVICIO,,3-nov.-17,-3.6519416,40.4894203,No match,,,"(None, None)",,4518622.752980811,"('40.4894203', '-3.6519416')"
FB_000098,ZV,HORTALEZA,PARQUE FORESTAL DE VALDEBEBAS-PARQUE FELIPE VI,,"445857,822","4482296,127",ETRS89 / UTM  Zona 30N,EN SERVICIO,,3-nov.-17,-3.6388667,40.4895982,No match,,,"(None, None)",,4518534.4423109,"('40.4895982', '-3.6388667')"
FB_000086,ZV,HORTALEZA,PARQUE FORESTAL DE VALDEBEBAS-PARQUE FELIPE VI,,"446769,075","4482311,638",ETRS89 / UTM  Zona 30N,EN SERVICIO,,3-nov.-17,-3.628116,40.4897968,No match,,,"(None, None)",,4518467.911222013,"('40.4897968', '-3.628116')"
FB_000085,ZV,HORTALEZA,PARQUE FORESTAL DE VALDEBEBAS-PARQUE FELIPE VI,,"446384,5321","4482383,316",ETRS89 / UTM  Zona 30N,EN SERVICIO,,3-nov.-17,-3.6326594,40.4904178,No match,,,"(None, None)",,4518574.03106884,"('40.4904178', '-3.6326594')"
FUE_03-08_0000000097,ZV,FUENCARRAL-EL PARDO,PARQUE ARROYO FRESNO,AVDA.ARRROYOFRESNO C/V SENDA DEL INFANTE,"438733,2897","4482607,487",ETRS89 / UTM  Zona 30N,EN SERVICIO,,3-nov.-17,-3.7229588,40.4919077,No match,,,"(None, None)",,4519491.385929545,"('40.4919077', '-3.7229588')"
FUE_03-08_0000000149,ZV,FUENCARRAL-EL PARDO,CALLE MARÍA DE MAEZTU 110,"C/V CALLE SENDA DEL INFANTE
ARROYOFRESNO","438584,7835","4482766,8",ETRS89 / UTM  Zona 30N,EN SERVICIO,,3-nov.-17,-3.7247266,40.4933319,No match,,,"(None, None)",,4519663.917602264,"('40.4933319', '-3.7247266')"
FUE_04-16_0000000152,VP,HORTALEZA,VALDEBEBAS - CONECTOR FERNANDO HIGUERAS ,C/ JULIO CANO LASSO Nº 8 CV C/ JOSE ANTONIO FERNÁNDEZ ORDOÑEZ.,"448695,16","4482723,21",ETRS89 / UTM  Zona 30N,EN SERVICIO,,3-nov.-17,-3.6054231,40.4936257,No match,,,"(None, None)",,4518705.807467168,"('40.4936257', '-3.6054231')"
FUE_03-08_0000000148,ZV,FUENCARRAL-EL PARDO,CALLE MARÍA DE MAEZTU 118,ARROYOFRESNO,"438722,3671","4482907,294",ETRS89 / UTM  Zona 30N,FUERA DE SERVICIO,DEFICIENCIA ESTRUCTURAL,3-nov.-17,-3.7231167,40.4946076,No match,,,"(None, None)",,4519791.520922115,"('40.4946076', '-3.7231167')"
FUE_04-16_0000000146,ZV,HORTALEZA,PARQUE MARIA TUDOR,"MARIA TUDOR, 14","444042,6202","4482870,507",ETRS89 / UTM  Zona 30N,EN SERVICIO,,3-nov.-17,-3.6603351,40.494652,No match,,,"(None, None)",,4519271.388073159,"('40.494652', '-3.6603351')"
FB_000084,ZV,HORTALEZA,PARQUE FORESTAL DE VALDEBEBAS-PARQUE FELIPE VI,,"446749,788","4482875,658",ETRS89 / UTM  Zona 30N,EN SERVICIO,,3-nov.-17,-3.628391,40.4948766,No match,,,"(None, None)",,4519032.504314572,"('40.4948766', '-3.628391')"
FB_000099,ZV,HORTALEZA,PARQUE FORESTAL DE VALDEBEBAS-PARQUE FELIPE VI,,"447059,973","4483023,096",ETRS89 / UTM  Zona 30N,EN SERVICIO,,3-nov.-17,-3.6247431,40.4962246,No match,,,"(None, None)",,4519151.756340964,"('40.4962246', '-3.6247431')"
FUE_03-08_0000000147,ZV,FUENCARRAL-EL PARDO,CALLE MARÍA DE MAEZTU 148,ARROYOFRESNO,"438842,2236","4483134,836",ETRS89 / UTM  Zona 30N,EN SERVICIO,,3-nov.-17,-3.7217245,40.4966663,No match,,,"(None, None)",,4520007.623039177,"('40.4966663', '-3.7217245')"
FB_000080,ZV,HORTALEZA,PARQUE FORESTAL DE VALDEBEBAS-PARQUE FELIPE VI,,"446929,5629","4483122,218",ETRS89 / UTM  Zona 30N,EN SERVICIO,,3-nov.-17,-3.6262903,40.4971092,No match,,,"(None, None)",,4519262.3900435995,"('40.4971092', '-3.6262903')"
FUE_03-08_0000000009,ZV,FUENCARRAL-EL PARDO,A.V.C. LAS TABLAS,C/PALAS DE REY Nº5,"443952,9451","4483781,233",ETRS89 / UTM  Zona 30N,EN SERVICIO,,3-nov.-17,-3.6614738,40.5028501,No match,,,"(None, None)",,4520188.281446992,"('40.5028501', '-3.6614738')"
FUE_03-08_0000000146,VP,FUENCARRAL-EL PARDO,CALLE SIERRA DE ATAPUERCA,CV PASEO SAN MILLÁN DE LA COGOLLA,"443553,3326","4484153,621",ETRS89 / UTM  Zona 30N,EN SERVICIO,,3-nov.-17,-3.666223,40.5061777,No match,,,"(None, None)",,4520596.018643828,"('40.5061777', '-3.666223')"
FUE_03-08_0000000151,ZV,FUENCARRAL-EL PARDO,CALLE SANTO DOMINGO DE LA CALZADA,C/V CARRETERA DE FUENCARRAL A HORTALEZA,"442326,7282","4484307,871",ETRS89 / UTM  Zona 30N,EN SERVICIO,,3-nov.-17,-3.6807133,40.5074829,No match,,,"(None, None)",,4520861.023774753,"('40.5074829', '-3.6807133')"
FUE_03-08_0000000004,ZV,FUENCARRAL-EL PARDO,"AVDA MONTECARMELO, 10 ",DETRÁS DEL CEMENTERIO,"440420,3714","4484468,585",ETRS89 / UTM  Zona 30N,FUERA DE SERVICIO,DEFICIENCIA ESTRUCTURAL,3-nov.-17,-3.7032275,40.508796,No match,,,"(None, None)",,4521194.570561691,"('40.508796', '-3.7032275')"
FUE_03-08_0000000003,ZV,FUENCARRAL-EL PARDO,A.V.C. LAS TABLAS,,"443432,2386","4484851,356",ETRS89 / UTM  Zona 30N,EN SERVICIO,,3-nov.-17,-3.6677145,40.512455,No match,,,"(None, None)",,4521303.2296658475,"('40.512455', '-3.6677145')"
FUE_03-08_0000000012,ZV,FUENCARRAL-EL PARDO,PARQUE DEL PUEBLO DE EL PARDO,,"434446,8682","4485509,632",ETRS89 / UTM  Zona 30N,EN SERVICIO,,3-nov.-17,-3.7738356,40.5177233,No match,,,"(None, None)",,4522780.077497503,"('40.5177233', '-3.7738356')"
