{
  "type": "FeatureCollection",
  "generator": "overpass-ide",
  "copyright": "The data included in this document is from www.openstreetmap.org. The data is made available under ODbL.",
  "timestamp": "2017-11-17T12:27:01Z",
  "features": [
    {
      "type": "Feature",
      "properties": {
        "@id": "node/26493376",
        "historic": "memorial",
        "name": "Monumento homenaje a las víctimas del 11-M"
      },
      "geometry": {
        "type": "Point",
        "coordinates": [
          -3.6889189,
          40.4068764
        ]
      },
      "id": "node/26493376"
    },
    {
      "type": "Feature",
      "properties": {
        "@id": "node/153061345",
        "historic": "memorial",
        "name": "Homenaje a las víctimas españolas que murieron en el campo de concentración nazi de Mauthausen-Gusen",
        "wheelchair": "limited"
      },
      "geometry": {
        "type": "Point",
        "coordinates": [
          -3.7264266,
          40.4500989
        ]
      },
      "id": "node/153061345"
    },
    {
      "type": "Feature",
      "properties": {
        "@id": "node/167301842",
        "addr:country": "ES",
        "artist_name": "Agustín Querol",
        "artwork_type": "statue",
        "historic": "memorial",
        "name": "Monumento a Claudio Moyano",
        "start_date": "1899",
        "tourism": "artwork"
      },
      "geometry": {
        "type": "Point",
        "coordinates": [
          -3.6915086,
          40.4093166
        ]
      },
      "id": "node/167301842"
    },
    {
      "type": "Feature",
      "properties": {
        "@id": "node/178820936",
        "addr:country": "ES",
        "artwork_type": "statue",
        "historic": "memorial",
        "name": "Monumento a Álvaro de Bazán",
        "tourism": "artwork"
      },
      "geometry": {
        "type": "Point",
        "coordinates": [
          -3.7104049,
          40.4151202
        ]
      },
      "id": "node/178820936"
    },
    {
      "type": "Feature",
      "properties": {
        "@id": "node/343664154",
        "description:es": "A los héroes populares que el 2 de mayo de 1808 iniciaron en este mismo lugar la protesta y sacrificio contra las tropas extranjeras. El círculo de bellas artes 1908. Repuesta por el ayuntamiento de Madrid 1947",
        "historic": "memorial",
        "name": "A los héroes del 2 de mayo 1808"
      },
      "geometry": {
        "type": "Point",
        "coordinates": [
          -3.7132927,
          40.4186464
        ]
      },
      "id": "node/343664154"
    },
    {
      "type": "Feature",
      "properties": {
        "@id": "node/614121472",
        "addr:city": "Madrid",
        "description": "Homenaje a los cinco abogados laboralistas asesinados en Atocha en 1977",
        "description:es": "Homenaje a los cinco abogados laboralistas asesinados en Atocha en 1977",
        "historic": "memorial",
        "memorial:addr": "Calle de Atocha 52, 28012, Madrid, ES",
        "memorial:type": "statue",
        "name": "Monumento en honor a los abogados de Atocha",
        "source": "wikipedia;PNOA",
        "start_date": "2003-06-10",
        "wheelchair": "yes",
        "wheelchair:description": "Close to steps into Metro.",
        "wikidata": "Q886485",
        "wikimedia_commons": "File:HomenajeMatanzaAtocha.jpg",
        "wikipedia": "es:Matanza de Atocha de 1977"
      },
      "geometry": {
        "type": "Point",
        "coordinates": [
          -3.6993281,
          40.4124029
        ]
      },
      "id": "node/614121472"
    },
    {
      "type": "Feature",
      "properties": {
        "@id": "node/622204610",
        "artwork_type": "statue",
        "historic": "memorial",
        "layer": "1",
        "name": "Don Quijote y Sancho Panza",
        "name:ko": "스페인 광장",
        "tourism": "artwork",
        "wheelchair": "yes",
        "wheelchair:description": "Step-free, paved path to foot of statue from both sides. Reflection in pond cannot be easily seen from a wheelchair."
      },
      "geometry": {
        "type": "Point",
        "coordinates": [
          -3.7127023,
          40.4231288
        ]
      },
      "id": "node/622204610"
    },
    {
      "type": "Feature",
      "properties": {
        "@id": "node/623071196",
        "historic": "memorial",
        "name": "Lord Baden Powell",
        "url": "http://www.monumentamadrid.es/AM_Monumentos5/AM_Monumentos5_WEB/pdf/pdfP/mon1/8544.pdf"
      },
      "geometry": {
        "type": "Point",
        "coordinates": [
          -3.7605889,
          40.4086369
        ]
      },
      "id": "node/623071196"
    },
    {
      "type": "Feature",
      "properties": {
        "@id": "node/737215760",
        "historic": "memorial",
        "name": "Memorial General Ibáñez de Ibero"
      },
      "geometry": {
        "type": "Point",
        "coordinates": [
          -3.710312,
          40.444597
        ]
      },
      "id": "node/737215760"
    },
    {
      "type": "Feature",
      "properties": {
        "@id": "node/1443235061",
        "historic": "memorial",
        "name": "Monumento a Camilo José Cela"
      },
      "geometry": {
        "type": "Point",
        "coordinates": [
          -3.7300769,
          40.4497126
        ]
      },
      "id": "node/1443235061"
    },
    {
      "type": "Feature",
      "properties": {
        "@id": "node/1445334261",
        "historic": "memorial",
        "name": "Monumento a Alexander Dubcer"
      },
      "geometry": {
        "type": "Point",
        "coordinates": [
          -3.7306834,
          40.4494534
        ]
      },
      "id": "node/1445334261"
    },
    {
      "type": "Feature",
      "properties": {
        "@id": "node/1445334262",
        "historic": "memorial",
        "name": "Monumento a Omar Jayyam de Neyshabur"
      },
      "geometry": {
        "type": "Point",
        "coordinates": [
          -3.7305408,
          40.4494683
        ]
      },
      "id": "node/1445334262"
    },
    {
      "type": "Feature",
      "properties": {
        "@id": "node/1517405752",
        "artwork_type": "statue",
        "historic": "memorial",
        "name": "Monumento a Daoíz y Velarde",
        "tourism": "artwork"
      },
      "geometry": {
        "type": "Point",
        "coordinates": [
          -3.704074,
          40.4269348
        ]
      },
      "id": "node/1517405752"
    },
    {
      "type": "Feature",
      "properties": {
        "@id": "node/1591490339",
        "addr:country": "ES",
        "description": "Obra de Benlliure, Miguel Blay, Juan Cristóbal y Francisco Asorey. Se inició en 1931 y se inauguró en 1952.",
        "designation": "Monumento a Cuba",
        "historic": "memorial",
        "name": "Monumento a Cuba"
      },
      "geometry": {
        "type": "Point",
        "coordinates": [
          -3.6815433,
          40.4193453
        ]
      },
      "id": "node/1591490339"
    },
    {
      "type": "Feature",
      "properties": {
        "@id": "node/1591492530",
        "addr:country": "ES",
        "artwork_type": "sculpture",
        "historic": "memorial",
        "name": "Monumento a los Hermanos Álvarez Quintero",
        "tourism": "artwork"
      },
      "geometry": {
        "type": "Point",
        "coordinates": [
          -3.682085,
          40.4196176
        ]
      },
      "id": "node/1591492530"
    },
    {
      "type": "Feature",
      "properties": {
        "@id": "node/2286038456",
        "historic": "memorial",
        "name": "La Pasionaria"
      },
      "geometry": {
        "type": "Point",
        "coordinates": [
          -3.6359858,
          40.4215555
        ]
      },
      "id": "node/2286038456"
    },
    {
      "type": "Feature",
      "properties": {
        "@id": "node/2286038459",
        "historic": "memorial",
        "name": "Pablo Iglesias"
      },
      "geometry": {
        "type": "Point",
        "coordinates": [
          -3.635841,
          40.4216699
        ]
      },
      "id": "node/2286038459"
    },
    {
      "type": "Feature",
      "properties": {
        "@id": "node/2330729230",
        "historic": "memorial",
        "memorial": "war_memorial",
        "name": "Monumento a los caídos en el cuartel de la Montaña",
        "start_date": "1972",
        "wikidata": "Q8352202",
        "wikipedia": "es:Cuartel de la Montaña"
      },
      "geometry": {
        "type": "Point",
        "coordinates": [
          -3.716456,
          40.4242778
        ]
      },
      "id": "node/2330729230"
    },
    {
      "type": "Feature",
      "properties": {
        "@id": "node/2351203475",
        "addr:country": "ES",
        "historic": "memorial",
        "name": "Monumento a Fray Ponce de León",
        "source": "survey"
      },
      "geometry": {
        "type": "Point",
        "coordinates": [
          -3.6818724,
          40.420179
        ]
      },
      "id": "node/2351203475"
    },
    {
      "type": "Feature",
      "properties": {
        "@id": "node/2493539701",
        "historic": "memorial",
        "inscription": "Ramón Franco;Julio Ruiz de Alza, Juan Manuel Durán;Pablo Rada",
        "name": "A los heroicos aviadores del Plus Ultra"
      },
      "geometry": {
        "type": "Point",
        "coordinates": [
          -3.7185745,
          40.4341498
        ]
      },
      "id": "node/2493539701"
    },
    {
      "type": "Feature",
      "properties": {
        "@id": "node/2493588820",
        "historic": "memorial",
        "name": "Vasco Núñez de Balboa"
      },
      "geometry": {
        "type": "Point",
        "coordinates": [
          -3.7212555,
          40.4380647
        ]
      },
      "id": "node/2493588820"
    },
    {
      "type": "Feature",
      "properties": {
        "@id": "node/2527419982",
        "addr:country": "ES",
        "historic": "memorial",
        "name": "Busto a Ricardo Codorníu",
        "toilets:wheelchair": "yes",
        "wheelchair": "yes"
      },
      "geometry": {
        "type": "Point",
        "coordinates": [
          -3.6808,
          40.4127123
        ]
      },
      "id": "node/2527419982"
    },
    {
      "type": "Feature",
      "properties": {
        "@id": "node/2527419986",
        "addr:country": "ES",
        "historic": "memorial",
        "name": "Monumento a Julio Romero de Torres"
      },
      "geometry": {
        "type": "Point",
        "coordinates": [
          -3.6807607,
          40.4117087
        ]
      },
      "id": "node/2527419986"
    },
    {
      "type": "Feature",
      "properties": {
        "@id": "node/2544271907",
        "addr:country": "ES",
        "historic": "memorial",
        "name": "Monumento a Santiago Ramón y Cajal",
        "wikidata": "Q9034960",
        "wikipedia": "es:Monumento a Santiago Ramón y Cajal"
      },
      "geometry": {
        "type": "Point",
        "coordinates": [
          -3.6812477,
          40.4164778
        ]
      },
      "id": "node/2544271907"
    },
    {
      "type": "Feature",
      "properties": {
        "@id": "node/2592548745",
        "historic": "memorial",
        "name": "Monumento a la Hispanidad"
      },
      "geometry": {
        "type": "Point",
        "coordinates": [
          -3.7212376,
          40.4376396
        ]
      },
      "id": "node/2592548745"
    },
    {
      "type": "Feature",
      "properties": {
        "@id": "node/2631185133",
        "historic": "memorial"
      },
      "geometry": {
        "type": "Point",
        "coordinates": [
          -3.7651477,
          40.3881732
        ]
      },
      "id": "node/2631185133"
    },
    {
      "type": "Feature",
      "properties": {
        "@id": "node/2671594358",
        "artist_name": "Andrés Aleu y Teixidor",
        "historic": "memorial",
        "name": "Estatua del Marqués del Duero",
        "start_date": "1885",
        "tourism": "artwork"
      },
      "geometry": {
        "type": "Point",
        "coordinates": [
          -3.6906957,
          40.4380057
        ]
      },
      "id": "node/2671594358"
    },
    {
      "type": "Feature",
      "properties": {
        "@id": "node/2716853826",
        "description": "Ministro de Trabajo",
        "historic": "memorial",
        "memorial:type": "statue",
        "name": "Francisco Largo Caballero",
        "source": "survey"
      },
      "geometry": {
        "type": "Point",
        "coordinates": [
          -3.6921155,
          40.4425877
        ]
      },
      "id": "node/2716853826"
    },
    {
      "type": "Feature",
      "properties": {
        "@id": "node/2971949909",
        "artist_name": "Humberto Peraza",
        "artwork_type": "statue",
        "historic": "memorial",
        "name": "Estatua Agustín Lara",
        "start_date": "1975",
        "tourism": "artwork"
      },
      "geometry": {
        "type": "Point",
        "coordinates": [
          -3.7035185,
          40.4080585
        ]
      },
      "id": "node/2971949909"
    },
    {
      "type": "Feature",
      "properties": {
        "@id": "node/3035346536",
        "historic": "memorial",
        "name": "Dragón"
      },
      "geometry": {
        "type": "Point",
        "coordinates": [
          -3.6562302,
          40.4229033
        ]
      },
      "id": "node/3035346536"
    },
    {
      "type": "Feature",
      "properties": {
        "@id": "node/3096525832",
        "artwork_type": "statue",
        "historic": "memorial",
        "name": "Estatua a Bravo Murillo",
        "source": "survey",
        "tourism": "artwork"
      },
      "geometry": {
        "type": "Point",
        "coordinates": [
          -3.7038918,
          40.4388882
        ]
      },
      "id": "node/3096525832"
    },
    {
      "type": "Feature",
      "properties": {
        "@id": "node/3129784949",
        "historic": "memorial",
        "name": "Dr. Flemming"
      },
      "geometry": {
        "type": "Point",
        "coordinates": [
          -3.6638491,
          40.4311603
        ]
      },
      "id": "node/3129784949"
    },
    {
      "type": "Feature",
      "properties": {
        "@id": "node/3135976516",
        "historic": "memorial",
        "memorial": "statue",
        "name": "Monumento a José Martí"
      },
      "geometry": {
        "type": "Point",
        "coordinates": [
          -3.6891084,
          40.4492877
        ]
      },
      "id": "node/3135976516"
    },
    {
      "type": "Feature",
      "properties": {
        "@id": "node/3136816592",
        "historic": "memorial",
        "inscription": "Aquí estuvo el Palacete de Pozas donde vivió de 1915 hasta su muerte en 1921 EMILIA PARDO BAZÁN escritora fecunda y activa intelectual, defensora de los derechos de la mujer",
        "memorial": "plaque",
        "name": "Emilia Pardo Bazán"
      },
      "geometry": {
        "type": "Point",
        "coordinates": [
          -3.7148918,
          40.4283798
        ]
      },
      "id": "node/3136816592"
    },
    {
      "type": "Feature",
      "properties": {
        "@id": "node/3225127923",
        "historic": "memorial",
        "name": "Monumento a las Brigadas Internacionales"
      },
      "geometry": {
        "type": "Point",
        "coordinates": [
          -3.7277929,
          40.443409
        ]
      },
      "id": "node/3225127923"
    },
    {
      "type": "Feature",
      "properties": {
        "@id": "node/3262147398",
        "historic": "memorial",
        "name": "Monumento al General Vara de Rey y Héroes del Caney"
      },
      "geometry": {
        "type": "Point",
        "coordinates": [
          -3.6853146,
          40.4059537
        ]
      },
      "id": "node/3262147398"
    },
    {
      "type": "Feature",
      "properties": {
        "@id": "node/3269790737",
        "artwork_type": "statue",
        "historic": "memorial",
        "name": "Hércules y Yolao luchando con la Hidra de Lerna",
        "tourism": "artwork"
      },
      "geometry": {
        "type": "Point",
        "coordinates": [
          -3.6791499,
          40.4121633
        ]
      },
      "id": "node/3269790737"
    },
    {
      "type": "Feature",
      "properties": {
        "@id": "node/3273205642",
        "historic": "memorial",
        "memorial": "statue",
        "name": "bici blanca"
      },
      "geometry": {
        "type": "Point",
        "coordinates": [
          -3.7107573,
          40.4666514
        ]
      },
      "id": "node/3273205642"
    },
    {
      "type": "Feature",
      "properties": {
        "@id": "node/3323327380",
        "historic": "memorial",
        "name": "José Cubero \"Yiyo\""
      },
      "geometry": {
        "type": "Point",
        "coordinates": [
          -3.6630679,
          40.4312387
        ]
      },
      "id": "node/3323327380"
    },
    {
      "type": "Feature",
      "properties": {
        "@id": "node/3323327381",
        "historic": "memorial",
        "name": "Luis Miguel Dominguín"
      },
      "geometry": {
        "type": "Point",
        "coordinates": [
          -3.6638816,
          40.4312883
        ]
      },
      "id": "node/3323327381"
    },
    {
      "type": "Feature",
      "properties": {
        "@id": "node/3325120433",
        "historic": "memorial",
        "name": "Antonio Bienvenida"
      },
      "geometry": {
        "type": "Point",
        "coordinates": [
          -3.6623383,
          40.4315623
        ]
      },
      "id": "node/3325120433"
    },
    {
      "type": "Feature",
      "properties": {
        "@id": "node/3325123702",
        "artist_name": "Luis Sanguino",
        "artwork_type": "sculpture",
        "historic": "memorial",
        "memorial": "statue",
        "name": "Manuel Rodríguez \"Manolete\"",
        "tourism": "artwork"
      },
      "geometry": {
        "type": "Point",
        "coordinates": [
          -3.6170478,
          40.443852
        ]
      },
      "id": "node/3325123702"
    },
    {
      "type": "Feature",
      "properties": {
        "@id": "node/3340510204",
        "historic": "memorial",
        "name": "Velázquez"
      },
      "geometry": {
        "type": "Point",
        "coordinates": [
          -3.683319,
          40.4328303
        ]
      },
      "id": "node/3340510204"
    },
    {
      "type": "Feature",
      "properties": {
        "@id": "node/3357463141",
        "historic": "memorial",
        "name": "Miguel de Cervantes"
      },
      "geometry": {
        "type": "Point",
        "coordinates": [
          -3.6119256,
          40.4345436
        ]
      },
      "id": "node/3357463141"
    },
    {
      "type": "Feature",
      "properties": {
        "@id": "node/3372171066",
        "historic": "memorial",
        "name": "Eva Perón"
      },
      "geometry": {
        "type": "Point",
        "coordinates": [
          -3.6696473,
          40.4297533
        ]
      },
      "id": "node/3372171066"
    },
    {
      "type": "Feature",
      "properties": {
        "@id": "node/3384773023",
        "historic": "memorial",
        "memorial": "statue",
        "name": "Alexander Pushkin"
      },
      "geometry": {
        "type": "Point",
        "coordinates": [
          -3.66142,
          40.4226627
        ]
      },
      "id": "node/3384773023"
    },
    {
      "type": "Feature",
      "properties": {
        "@id": "node/3384773024",
        "historic": "memorial",
        "memorial": "statue",
        "name": "Enrique Iniesta"
      },
      "geometry": {
        "type": "Point",
        "coordinates": [
          -3.6617683,
          40.4234946
        ]
      },
      "id": "node/3384773024"
    },
    {
      "type": "Feature",
      "properties": {
        "@id": "node/3386446624",
        "historic": "memorial",
        "name": "Andrés Segovia"
      },
      "geometry": {
        "type": "Point",
        "coordinates": [
          -3.6777894,
          40.4450026
        ]
      },
      "id": "node/3386446624"
    },
    {
      "type": "Feature",
      "properties": {
        "@id": "node/3389538256",
        "historic": "memorial",
        "name": "Arturo Soria"
      },
      "geometry": {
        "type": "Point",
        "coordinates": [
          -3.6503268,
          40.4484731
        ]
      },
      "id": "node/3389538256"
    },
    {
      "type": "Feature",
      "properties": {
        "@id": "node/3461927398",
        "historic": "memorial",
        "name": "Gustavo Adolfo Bécquer"
      },
      "geometry": {
        "type": "Point",
        "coordinates": [
          -3.6610996,
          40.423594
        ]
      },
      "id": "node/3461927398"
    },
    {
      "type": "Feature",
      "properties": {
        "@id": "node/3497590681",
        "historic": "memorial",
        "inscription": "Inventor de la Taquigrafía española 1761-1827",
        "name": "Francisco de Paula Martí Mora"
      },
      "geometry": {
        "type": "Point",
        "coordinates": [
          -3.6803365,
          40.419486
        ]
      },
      "id": "node/3497590681"
    },
    {
      "type": "Feature",
      "properties": {
        "@id": "node/3497590682",
        "historic": "memorial",
        "name": "Ruperto Chapí"
      },
      "geometry": {
        "type": "Point",
        "coordinates": [
          -3.6814886,
          40.4199037
        ]
      },
      "id": "node/3497590682"
    },
    {
      "type": "Feature",
      "properties": {
        "@id": "node/3497669669",
        "historic": "memorial",
        "name": "Chueca"
      },
      "geometry": {
        "type": "Point",
        "coordinates": [
          -3.6811396,
          40.410964
        ]
      },
      "id": "node/3497669669"
    },
    {
      "type": "Feature",
      "properties": {
        "@id": "node/3497669670",
        "historic": "memorial",
        "name": "Manuel de Tolosa Latour"
      },
      "geometry": {
        "type": "Point",
        "coordinates": [
          -3.6810988,
          40.4106046
        ]
      },
      "id": "node/3497669670"
    },
    {
      "type": "Feature",
      "properties": {
        "@id": "node/3499541750",
        "historic": "memorial",
        "name": "Juan Pablo II"
      },
      "geometry": {
        "type": "Point",
        "coordinates": [
          -3.6229242,
          40.4556257
        ]
      },
      "id": "node/3499541750"
    },
    {
      "type": "Feature",
      "properties": {
        "@id": "node/3611208755",
        "historic": "memorial",
        "memorial": "plaque",
        "name": "casa de Ramón Menéndez Pidal"
      },
      "geometry": {
        "type": "Point",
        "coordinates": [
          -3.6825235,
          40.4600884
        ]
      },
      "id": "node/3611208755"
    },
    {
      "type": "Feature",
      "properties": {
        "@id": "node/3615830825",
        "historic": "memorial",
        "memorial": "statue",
        "name": "Blas de Lezo y Olavarrieta",
        "wheelchair": "yes"
      },
      "geometry": {
        "type": "Point",
        "coordinates": [
          -3.6886445,
          40.4243452
        ]
      },
      "id": "node/3615830825"
    },
    {
      "type": "Feature",
      "properties": {
        "@id": "node/3615830826",
        "historic": "memorial",
        "memorial": "statue",
        "name": "Jorge Juan y Santacilia",
        "wheelchair": "yes"
      },
      "geometry": {
        "type": "Point",
        "coordinates": [
          -3.6883594,
          40.4242573
        ]
      },
      "id": "node/3615830826"
    },
    {
      "type": "Feature",
      "properties": {
        "@id": "node/3681038636",
        "historic": "memorial",
        "memorial": "plaque",
        "name": "Dámaso Alonso"
      },
      "geometry": {
        "type": "Point",
        "coordinates": [
          -3.684152,
          40.4588816
        ]
      },
      "id": "node/3681038636"
    },
    {
      "type": "Feature",
      "properties": {
        "@id": "node/3746095687",
        "historic": "memorial",
        "memorial": "bust",
        "name": "Antonio Machado"
      },
      "geometry": {
        "type": "Point",
        "coordinates": [
          -3.6218092,
          40.4200628
        ]
      },
      "id": "node/3746095687"
    },
    {
      "type": "Feature",
      "properties": {
        "@id": "node/3771908450",
        "artwork_type": "statue",
        "historic": "memorial",
        "name": "Monumento a Pío Baroja",
        "tourism": "artwork"
      },
      "geometry": {
        "type": "Point",
        "coordinates": [
          -3.6890671,
          40.409693
        ]
      },
      "id": "node/3771908450"
    },
    {
      "type": "Feature",
      "properties": {
        "@id": "node/3786565480",
        "historic": "memorial",
        "inscription": "Aquí estuvo desde el siglo XVI el Corral de Comedias de la Cruz donde se estrenó gran parte del teatro español del Siglo de Oro",
        "memorial:type": "plaque",
        "name": "Corral de comedias de la Cruz"
      },
      "geometry": {
        "type": "Point",
        "coordinates": [
          -3.7022804,
          40.4150181
        ]
      },
      "id": "node/3786565480"
    },
    {
      "type": "Feature",
      "properties": {
        "@id": "node/3789313657",
        "historic": "memorial",
        "inscription": "Aquí vivió y murió Benito Pérez Galdós",
        "memorial": "plaque",
        "name": "A Galdós, el pueblo de Madrid"
      },
      "geometry": {
        "type": "Point",
        "coordinates": [
          -3.7169068,
          40.4326436
        ]
      },
      "id": "node/3789313657"
    },
    {
      "type": "Feature",
      "properties": {
        "@id": "node/3971000857",
        "historic": "memorial",
        "name": "Los pueblos de Hispanoamérica y Filipinas a Isabel la Católica"
      },
      "geometry": {
        "type": "Point",
        "coordinates": [
          -3.7202043,
          40.4378821
        ]
      },
      "id": "node/3971000857"
    },
    {
      "type": "Feature",
      "properties": {
        "@id": "node/4215714604",
        "artwork_type": "statue",
        "historic": "memorial",
        "name": "José Cubero \"Yiyo\"",
        "tourism": "artwork"
      },
      "geometry": {
        "type": "Point",
        "coordinates": [
          -3.6117037,
          40.4418785
        ]
      },
      "id": "node/4215714604"
    },
    {
      "type": "Feature",
      "properties": {
        "@id": "node/4234629586",
        "historic": "memorial",
        "inscription": "D. Isaac Peral y Caballero - inventor del submarino - fundó este edificio en 1892 la primera fábrica de baterías para uso industrial",
        "memorial": "plaque",
        "name": "Isaac Peral y Caballero"
      },
      "geometry": {
        "type": "Point",
        "coordinates": [
          -3.7183108,
          40.412575
        ]
      },
      "id": "node/4234629586"
    },
    {
      "type": "Feature",
      "properties": {
        "@id": "node/4237264570",
        "historic": "memorial",
        "name": "Manuel Alonso Martínez"
      },
      "geometry": {
        "type": "Point",
        "coordinates": [
          -3.6963098,
          40.4279854
        ]
      },
      "id": "node/4237264570"
    },
    {
      "type": "Feature",
      "properties": {
        "@id": "node/4291522575",
        "historic": "memorial",
        "inscription": "Beatriz Galindo \"La Latina\"",
        "memorial": "statue",
        "name": "Monumento a Beatriz Galindo"
      },
      "geometry": {
        "type": "Point",
        "coordinates": [
          -3.7286778,
          40.4135707
        ]
      },
      "id": "node/4291522575"
    },
    {
      "type": "Feature",
      "properties": {
        "@id": "node/4302309640",
        "historic": "memorial",
        "inscription": "En esta casa vivió en el piso primero el escritor Ramón Gómez de la Serna y se creó entre 1910 y 1912 el género literario de su invención, la greguería",
        "memorial": "plaque",
        "name": "Ramón Gómez de la Serna",
        "source": "https://twitter.com/SecretosdeMadri/status/743351185432674304/photo/1"
      },
      "geometry": {
        "type": "Point",
        "coordinates": [
          -3.7031401,
          40.4221369
        ]
      },
      "id": "node/4302309640"
    },
    {
      "type": "Feature",
      "properties": {
        "@id": "node/4302331748",
        "historic": "memorial",
        "inscription": "Aquí estuvieron las casas donde el pintor Diego de Silva Velázquez vivió desde su establecimiento en Madrid en 1623",
        "memorial": "plaque",
        "name": "Diego de Silva Velázquez",
        "operator": "Ayuntamiento de Madrid"
      },
      "geometry": {
        "type": "Point",
        "coordinates": [
          -3.7055764,
          40.4140363
        ]
      },
      "id": "node/4302331748"
    },
    {
      "type": "Feature",
      "properties": {
        "@id": "node/4319630815",
        "artist_name": "Alicia Huertas",
        "historic": "memorial",
        "inscription": "Homenaje del ayuntamiento de Madrid a Antonio Mingote. Patrocinado por Concepción Mira García",
        "memorial": "bust",
        "name": "Homenaje a Antonio Mingote"
      },
      "geometry": {
        "type": "Point",
        "coordinates": [
          -3.6851185,
          40.419993
        ]
      },
      "id": "node/4319630815"
    },
    {
      "type": "Feature",
      "properties": {
        "@id": "node/4333590444",
        "historic": "memorial",
        "inscription": "En este lugar en 1890 MAHOU inició su actividad de elaboración de cervezas",
        "memorial": "plaque",
        "name": "Fábrica de cervezas Mahou",
        "website": "http://especiales.memoriademadrid.es/index/verficha/idpk/148866/id/8/obj/D/idag/30"
      },
      "geometry": {
        "type": "Point",
        "coordinates": [
          -3.7095692,
          40.4277561
        ]
      },
      "id": "node/4333590444"
    },
    {
      "type": "Feature",
      "properties": {
        "@id": "node/4426448668",
        "historic": "memorial",
        "memorial": "stone",
        "name": "Primera piedra Ciudad Lineal 1894",
        "url": "http://www.monumentamadrid.es/AM_Monumentos5/AM_Monumentos5_WEB/index.htm#mon7.9157"
      },
      "geometry": {
        "type": "Point",
        "coordinates": [
          -3.6383292,
          40.4382577
        ]
      },
      "id": "node/4426448668"
    },
    {
      "type": "Feature",
      "properties": {
        "@id": "node/4426820959",
        "historic": "memorial",
        "inscription": "Aquí pasó su infancia la escritora Elena Fortún (1886-1952) creadora de Celia y de muchos cuentos más",
        "memorial": "plaque",
        "name": "Elena Fortún",
        "source": "https://twitter.com/MADRID/status/782198492106199040"
      },
      "geometry": {
        "type": "Point",
        "coordinates": [
          -3.6980958,
          40.4135178
        ]
      },
      "id": "node/4426820959"
    },
    {
      "type": "Feature",
      "properties": {
        "@id": "node/4440367768",
        "historic": "memorial",
        "memorial": "stone",
        "name": "Francisco Largo Caballero"
      },
      "geometry": {
        "type": "Point",
        "coordinates": [
          -3.6387317,
          40.4234585
        ]
      },
      "id": "node/4440367768"
    },
    {
      "type": "Feature",
      "properties": {
        "@id": "node/4470456589",
        "artwork_type": "sculpture",
        "historic": "memorial",
        "name": "La Universidad Complutense a Alfonso XII",
        "name:es": "La Universidad Complutense a Alfonso XII"
      },
      "geometry": {
        "type": "Point",
        "coordinates": [
          -3.7280915,
          40.4487081
        ]
      },
      "id": "node/4470456589"
    },
    {
      "type": "Feature",
      "properties": {
        "@id": "node/4602171356",
        "historic": "memorial",
        "inscription:1": "Aquí rindió su último servicio a la patria, con el sacrificio de su vida, víctima de un vil atentado, el almirante Luís Carrero Blanco, presidente del gobierno español.",
        "inscription:2": "El pueblo de Madrid dedica esta lápida para honrar su muerte heroica y perpetuar su memoria. 20-XII-1.974",
        "memorial:addr": "Calle de Claudio Coello 127, 28006, Madrid, ES",
        "memorial:type": "plaque",
        "name": "Placa en honor a Carrero Blanco",
        "start_date": "1974-12-20",
        "wikidata": "Q4992248",
        "wikimedia_commons": "File:Placa Carrero Blanco.jpg",
        "wikipedia": "es:Asesinato de Carrero Blanco"
      },
      "geometry": {
        "type": "Point",
        "coordinates": [
          -3.6855851,
          40.4341976
        ]
      },
      "id": "node/4602171356"
    },
    {
      "type": "Feature",
      "properties": {
        "@id": "node/4605454364",
        "historic": "memorial",
        "memorial": "bust",
        "name": "Pedro Vargas"
      },
      "geometry": {
        "type": "Point",
        "coordinates": [
          -3.6800454,
          40.417984
        ]
      },
      "id": "node/4605454364"
    },
    {
      "type": "Feature",
      "properties": {
        "@id": "node/4605493384",
        "historic": "memorial",
        "memorial": "bust",
        "name": "Galdos"
      },
      "geometry": {
        "type": "Point",
        "coordinates": [
          -3.680176,
          40.4120655
        ]
      },
      "id": "node/4605493384"
    },
    {
      "type": "Feature",
      "properties": {
        "@id": "node/4605868179",
        "historic": "memorial",
        "inscription": "En esta casa trabajaron por la libertad y murieron por defenderla el 24 de Enero de 1977. Javier Benavides, Serafín Holgado, Ángel Rodríguez, Javier Sauquillo, Enrique Valdelvira. Ayuntamiento de Madrid. 24 Enero 1987",
        "memorial:addr": "Calle de Atocha 55, 28012, Madrid, ES",
        "memorial:type": "plaque",
        "name": "Placa en honor a los abogados de Atocha",
        "source": "survey",
        "start_date": "1987-01-24",
        "wikidata": "Q886485",
        "wikipedia": "es:Matanza de Atocha de 1977"
      },
      "geometry": {
        "type": "Point",
        "coordinates": [
          -3.6998442,
          40.4128196
        ]
      },
      "id": "node/4605868179"
    },
    {
      "type": "Feature",
      "properties": {
        "@id": "node/4612647448",
        "historic": "memorial",
        "inscription": "Aquí vivió el madrileño Enrique Herreros, pintor, humorista, cineasta y montañero",
        "memorial": "plaque",
        "name": "Enrique Herreros",
        "source": "Ayuntamiento de Madrid"
      },
      "geometry": {
        "type": "Point",
        "coordinates": [
          -3.7018185,
          40.4310183
        ]
      },
      "id": "node/4612647448"
    },
    {
      "type": "Feature",
      "properties": {
        "@id": "node/4614596764",
        "historic": "memorial",
        "inscription": "En esta casa nació Lina Prokofiev, cantante y esposa del compositor Serguei Prokofiev",
        "memorial": "plaque",
        "name": "Lina Prokofiev",
        "source": "Ayuntamiento de Madrid"
      },
      "geometry": {
        "type": "Point",
        "coordinates": [
          -3.6935888,
          40.4235748
        ]
      },
      "id": "node/4614596764"
    },
    {
      "type": "Feature",
      "properties": {
        "@id": "node/4614616439",
        "historic": "memorial",
        "inscription": "Aquí vivió Pedro de la Torre, arquitecto mayor del rey Felipe IV",
        "memorial": "plaque",
        "name": "Pedro de la Torre",
        "source": "Ayuntamiento de Madrid"
      },
      "geometry": {
        "type": "Point",
        "coordinates": [
          -3.6971717,
          40.4221646
        ]
      },
      "id": "node/4614616439"
    },
    {
      "type": "Feature",
      "properties": {
        "@id": "node/4614629487",
        "historic": "memorial",
        "inscription": "En este lugar, en 1963, fundó el tablao \"Los canasteros\"",
        "memorial": "plaque",
        "name": "Manolo Caracol",
        "source": "Ayuntamiento de Madrid"
      },
      "geometry": {
        "type": "Point",
        "coordinates": [
          -3.6981118,
          40.4210538
        ]
      },
      "id": "node/4614629487"
    },
    {
      "type": "Feature",
      "properties": {
        "@id": "node/4614672071",
        "historic": "memorial",
        "inscription": "Aquí vivió Leonardo Torres Quevedo",
        "memorial": "plaque",
        "name": "Leonardo Torres Quevedo",
        "source": "Ayuntamiento de Madrid"
      },
      "geometry": {
        "type": "Point",
        "coordinates": [
          -3.6966788,
          40.4223114
        ]
      },
      "id": "node/4614672071"
    },
    {
      "type": "Feature",
      "properties": {
        "@id": "node/4614697582",
        "historic": "memorial",
        "inscription": "En esta casa murió, el 13 de septiembre de 1873, el insigne pintor Eduardo Rosales",
        "memorial": "plaque",
        "name": "Eduardo Rosales",
        "source": "Ayuntamiento de Madrid"
      },
      "geometry": {
        "type": "Point",
        "coordinates": [
          -3.6966005,
          40.4222285
        ]
      },
      "id": "node/4614697582"
    },
    {
      "type": "Feature",
      "properties": {
        "@id": "node/4621134520",
        "historic": "memorial",
        "inscription": "En esta casa vivió, desde 1940 hasta su muerte en 1987, Gerardo Diego, poeta y escritor",
        "memorial": "plaque",
        "name": "Gerardo Diego",
        "source": "Ayuntamiento de Madrid"
      },
      "geometry": {
        "type": "Point",
        "coordinates": [
          -3.6975766,
          40.4291609
        ]
      },
      "id": "node/4621134520"
    },
    {
      "type": "Feature",
      "properties": {
        "@id": "node/4623863819",
        "historic": "memorial",
        "inscription": "En esta casa vivió desde 1977 hasta su muerte en 2002, Carmelo Bernaola, insigne músico",
        "memorial": "plaque",
        "name": "Carmelo Bernaola",
        "source": "Ayuntamiento de Madrid"
      },
      "geometry": {
        "type": "Point",
        "coordinates": [
          -3.7039119,
          40.4282088
        ]
      },
      "id": "node/4623863819"
    },
    {
      "type": "Feature",
      "properties": {
        "@id": "node/4623867029",
        "historic": "memorial",
        "inscription": "En este lugar vivió y murió en 1734, Miguel Jacinto Meléndez, pintor del rey Felipe V",
        "memorial": "plaque",
        "name": "Miguel Jacinto Meléndez",
        "source": "Ayuntamiento de Madrid"
      },
      "geometry": {
        "type": "Point",
        "coordinates": [
          -3.7071563,
          40.4230653
        ]
      },
      "id": "node/4623867029"
    },
    {
      "type": "Feature",
      "properties": {
        "@id": "node/4628342976",
        "historic": "memorial",
        "inscription": "En este inmueble tuvieron su sede el Consejo Supremo y el Tribunal de la Inquisición desde la década de 1780 hasta su extinción en 1820",
        "memorial": "plaque",
        "name": "Tribunal de la Inquisición",
        "source": "Ayuntamiento de Madrid"
      },
      "geometry": {
        "type": "Point",
        "coordinates": [
          -3.7108438,
          40.4208026
        ]
      },
      "id": "node/4628342976"
    },
    {
      "type": "Feature",
      "properties": {
        "@id": "node/4628381249",
        "historic": "memorial",
        "inscription": "Aquí vivieron y murieron María Fernanda Ladrón de Guevara (1897 - 1974) y Amparo Rivelles (1925-2013) grandes actrices de una familia dedicada al cine y al teatro",
        "memorial": "plaque",
        "name": "María Fernanda Ladrón de Guevara y Amparo Rivelles",
        "source": "Ayuntamiento de Madrid"
      },
      "geometry": {
        "type": "Point",
        "coordinates": [
          -3.7100336,
          40.4222674
        ]
      },
      "id": "node/4628381249"
    },
    {
      "type": "Feature",
      "properties": {
        "@id": "node/4630082355",
        "historic": "memorial",
        "inscription": "En esta casa vivió de 1948 a 1965 el escritor César González Ruano y en ella escribió casi toda su obra",
        "memorial": "plaque",
        "name": "César González Ruano",
        "source": "Ayuntamiento de Madrid"
      },
      "geometry": {
        "type": "Point",
        "coordinates": [
          -3.6954873,
          40.4415613
        ]
      },
      "id": "node/4630082355"
    },
    {
      "type": "Feature",
      "properties": {
        "@id": "node/4630091496",
        "historic": "memorial",
        "inscription": "En esta casa vivió entre 1949 y 1954 Camilo José Cela y en ella escribió \"La Colmena\"",
        "memorial": "plaque",
        "name": "Camilo José Cela",
        "source": "Ayuntamiento de Madrid"
      },
      "geometry": {
        "type": "Point",
        "coordinates": [
          -3.6954223,
          40.4415566
        ]
      },
      "id": "node/4630091496"
    },
    {
      "type": "Feature",
      "properties": {
        "@id": "node/4630096975",
        "historic": "memorial",
        "inscription": "En esta casa vivió desde 1940 has su muerte en 1974, el actor madrileño Manuel Dicenta, catedrático de declamación, conferenciante y escritor",
        "memorial": "plaque",
        "name": "Manuel Dicenta",
        "source": "Ayuntamiento de Madrid"
      },
      "geometry": {
        "type": "Point",
        "coordinates": [
          -3.6961551,
          40.4415825
        ]
      },
      "id": "node/4630096975"
    },
    {
      "type": "Feature",
      "properties": {
        "@id": "node/4630251272",
        "addr:city": "Madrid",
        "addr:housenumber": "50",
        "addr:postcode": "28003",
        "addr:street": "Avenida de Filipinas",
        "historic": "memorial",
        "inscription": "En esta casa vivió y falleció el escritor y periodista Horacio Vázquez-Rial (1947-2012) en la ciudad que le acogió y en la que escribió parte de su obra",
        "memorial": "plaque",
        "name": "Horacio Vázquez-Rial",
        "source": "Ayuntamiento de Madrid"
      },
      "geometry": {
        "type": "Point",
        "coordinates": [
          -3.7057773,
          40.4415089
        ]
      },
      "id": "node/4630251272"
    },
    {
      "type": "Feature",
      "properties": {
        "@id": "node/4637348329",
        "historic": "memorial",
        "inscription": "Aqui vivió en 1906 el músico Bela Bartok en su primera visita a Madrid",
        "memorial": "plaque",
        "name": "Bela Bartok",
        "source": "Ayuntamiento de Madrid"
      },
      "geometry": {
        "type": "Point",
        "coordinates": [
          -3.7041776,
          40.4152542
        ]
      },
      "id": "node/4637348329"
    },
    {
      "type": "Feature",
      "properties": {
        "@id": "node/4637356680",
        "historic": "memorial",
        "inscription": "En esta casa nació la poeta Gloria Fuertes (1917-1998)",
        "memorial": "plaque",
        "name": "Gloria Fuertes",
        "source": "Ayuntamiento de Madrid"
      },
      "geometry": {
        "type": "Point",
        "coordinates": [
          -3.7046368,
          40.4117682
        ]
      },
      "id": "node/4637356680"
    },
    {
      "type": "Feature",
      "properties": {
        "@id": "node/4637363093",
        "historic": "memorial",
        "inscription": "En esta casa nació el 21 de marzo de 1665 el arquitecto José Benito de Churriguera autor de numerosas obras en Madrid",
        "memorial": "plaque",
        "name": "José Benito de Churriguera",
        "source": "Ayuntamiento de Madrid"
      },
      "geometry": {
        "type": "Point",
        "coordinates": [
          -3.7053343,
          40.4118116
        ]
      },
      "id": "node/4637363093"
    },
    {
      "type": "Feature",
      "properties": {
        "@id": "node/4637376470",
        "historic": "memorial",
        "inscription": "En este lugar estuvo desde 1857 el Teatro Novedades, uno de los foros más populares de Madrid que fue destruido por un incendio en 1928",
        "memorial": "plaque",
        "name": "Teatro Novedades",
        "source": "Ayuntamiento de Madrid"
      },
      "geometry": {
        "type": "Point",
        "coordinates": [
          -3.7089935,
          40.4104224
        ]
      },
      "id": "node/4637376470"
    },
    {
      "type": "Feature",
      "properties": {
        "@id": "node/4637387790",
        "historic": "memorial",
        "inscription": "En esta plaza murió en la horca, el 7 de noviembre del 1823, el general Rafael del Riego, símbolo liberal contra el absolutismo.",
        "memorial": "plaque",
        "name": "Rafael del Riego",
        "source": "Ayuntamiento de Madrid"
      },
      "geometry": {
        "type": "Point",
        "coordinates": [
          -3.7100887,
          40.4116055
        ]
      },
      "id": "node/4637387790"
    },
    {
      "type": "Feature",
      "properties": {
        "@id": "node/4642349262",
        "historic": "memorial",
        "inscription": "En esta casa vivió hasta su fallecimiento el gran torero toledano Domingo Ortega (1906-1988), maestro de la muleta y de la palabra",
        "memorial": "plaque",
        "name": "Domingo Ortega",
        "source": "Ayuntamiento de Madrid"
      },
      "geometry": {
        "type": "Point",
        "coordinates": [
          -3.6948832,
          40.4330496
        ]
      },
      "id": "node/4642349262"
    },
    {
      "type": "Feature",
      "properties": {
        "@id": "node/4642353515",
        "historic": "memorial",
        "inscription": "Este convento de las Siervas de María fue fundado por la madrileña Santa María de la Soledad Torres Acosta que aquí falleció en 1887",
        "memorial": "plaque",
        "name": "Santa María de la Soledad Torres Acosta",
        "source": "Ayuntamiento de Madrid"
      },
      "geometry": {
        "type": "Point",
        "coordinates": [
          -3.6967105,
          40.4329187
        ]
      },
      "id": "node/4642353515"
    },
    {
      "type": "Feature",
      "properties": {
        "@id": "node/4642358611",
        "historic": "memorial",
        "inscription": "En esta casa vivió y murió el escultor y académico madrileño Ricardo Bellver (1845-1924) autor de \"El ángel caído\" erigido en el Parque del Retiro en 1887",
        "memorial": "plaque",
        "name": "Ricardo Bellver",
        "source": "Ayuntamiento de Madrid"
      },
      "geometry": {
        "type": "Point",
        "coordinates": [
          -3.7019306,
          40.4307693
        ]
      },
      "id": "node/4642358611"
    },
    {
      "type": "Feature",
      "properties": {
        "@id": "node/4642365851",
        "historic": "memorial",
        "inscription": "En este lugar estuvo desde 1547 el Monasterio de San Felipe, celebre por sus gradas o mentidero \"de donde salían las nuevas primero que los sucesos\"",
        "memorial": "plaque",
        "name": "Monasterio de San Felipe",
        "source": "Ayuntamiento de Madrid"
      },
      "geometry": {
        "type": "Point",
        "coordinates": [
          -3.7046653,
          40.4164581
        ]
      },
      "id": "node/4642365851"
    },
    {
      "type": "Feature",
      "properties": {
        "@id": "node/4657219678",
        "historic": "memorial",
        "memorial": "bust",
        "name": "Gerardo Diego"
      },
      "geometry": {
        "type": "Point",
        "coordinates": [
          -3.6752161,
          40.4131213
        ]
      },
      "id": "node/4657219678"
    },
    {
      "type": "Feature",
      "properties": {
        "@id": "node/4660568601",
        "historic": "memorial",
        "inscription": "Aquí murió y fue enterrado en 1566 Fray Bartolomé de las Casas, llamado apóstol de las Indias",
        "memorial": "plaque",
        "name": "Fray Bartolomé de las Casas",
        "source": "Ayuntamiento de Madrid"
      },
      "geometry": {
        "type": "Point",
        "coordinates": [
          -3.6831922,
          40.4052428
        ]
      },
      "id": "node/4660568601"
    },
    {
      "type": "Feature",
      "properties": {
        "@id": "node/4660582824",
        "historic": "memorial",
        "inscription": "En este palacio habitado por los reyes de Castilla, nació en 1536 Juana de Austria que lo transformó en monasterio en 1559",
        "memorial": "plaque",
        "name": "Juana de Austria",
        "source": "Ayuntamiento de Madrid"
      },
      "geometry": {
        "type": "Point",
        "coordinates": [
          -3.7061706,
          40.4182484
        ]
      },
      "id": "node/4660582824"
    },
    {
      "type": "Feature",
      "properties": {
        "@id": "node/4660582825",
        "historic": "memorial",
        "inscription": "En este monasterio vivió la emperatriz María de Austria y en él murió en 1603",
        "memorial": "plaque",
        "name": "María de Austria",
        "source": "Ayuntamiento de Madrid"
      },
      "geometry": {
        "type": "Point",
        "coordinates": [
          -3.7065072,
          40.4183415
        ]
      },
      "id": "node/4660582825"
    },
    {
      "type": "Feature",
      "properties": {
        "@id": "node/4660601700",
        "historic": "memorial",
        "inscription": "En esta casa vivió el compositor madrileño Ramón Barce (1928-2008) figura decisiva en la vanguardia intelectual y musical de la segunda mitad del siglo XX",
        "memorial": "plaque",
        "name": "Ramón Barce",
        "source": "Ayuntamiento de Madrid"
      },
      "geometry": {
        "type": "Point",
        "coordinates": [
          -3.7099412,
          40.4155706
        ]
      },
      "id": "node/4660601700"
    },
    {
      "type": "Feature",
      "properties": {
        "@id": "node/4660615056",
        "historic": "memorial",
        "inscription": "En esta rinconada de San Ginés, el militar y aventurero Fray Alonso de Contreras, el capitán Contreras vivió y fue preso en 1608",
        "memorial": "plaque",
        "name": "Fray Alonso de Contreras",
        "source": "Ayuntamiento de Madrid"
      },
      "geometry": {
        "type": "Point",
        "coordinates": [
          -3.7072155,
          40.4167417
        ]
      },
      "id": "node/4660615056"
    },
    {
      "type": "Feature",
      "properties": {
        "@id": "node/4660626276",
        "historic": "memorial",
        "inscription": "En este lugar se alzaba la casa dónde nació en 1562 Félix Lope de Vega, llamado Fénix de los Ingenios",
        "memorial": "plaque",
        "name": "Lope de Vega",
        "source": "Ayuntamiento de Madrid"
      },
      "geometry": {
        "type": "Point",
        "coordinates": [
          -3.7090911,
          40.4159865
        ]
      },
      "id": "node/4660626276"
    },
    {
      "type": "Feature",
      "properties": {
        "@id": "node/4660642942",
        "historic": "memorial",
        "inscription": "Junto a este lugar se levantó hasta 1582, la puerta de Guadalaxara, la más importante de la muralla medieval madrileña",
        "memorial": "plaque",
        "name": "Puerta de Guadalaxara",
        "source": "Ayuntamiento de Madrid"
      },
      "geometry": {
        "type": "Point",
        "coordinates": [
          -3.7090772,
          40.4157789
        ]
      },
      "id": "node/4660642942"
    },
    {
      "type": "Feature",
      "properties": {
        "@id": "node/4660673136",
        "historic": "memorial",
        "inscription": "En este lugar estuvo la iglesia de San Salvador, en cuya torre Luis Vélez de Guevara situó su novela \"El diablo cojuelo\" 1641",
        "memorial": "plaque",
        "name": "Iglesia de San Salvador",
        "source": "Ayuntamiento de Madrid"
      },
      "geometry": {
        "type": "Point",
        "coordinates": [
          -3.7102781,
          40.4156519
        ]
      },
      "id": "node/4660673136"
    },
    {
      "type": "Feature",
      "properties": {
        "@id": "node/4660673533",
        "historic": "memorial",
        "inscription": "En estas casas nació, en 1846 el compositor Federico Chueca, prodigio castizo de la música madrileña",
        "memorial": "plaque",
        "name": "Federico Chueca",
        "source": "Ayuntamiento de Madrid"
      },
      "geometry": {
        "type": "Point",
        "coordinates": [
          -3.7101771,
          40.4152239
        ]
      },
      "id": "node/4660673533"
    },
    {
      "type": "Feature",
      "properties": {
        "@id": "node/4660674770",
        "historic": "memorial",
        "inscription": "Junto a este lugar, se sitúa hasta 1569 la puerta o Arco de Santa María, perteneciente a la muralla de la Almudena, fortaleza del Madrid musulman",
        "memorial": "plaque",
        "name": "Arco de Santa María",
        "source": "Ayuntamiento de Madrid"
      },
      "geometry": {
        "type": "Point",
        "coordinates": [
          -3.7123544,
          40.4152937
        ]
      },
      "id": "node/4660674770"
    },
    {
      "type": "Feature",
      "properties": {
        "@id": "node/4660686396",
        "historic": "memorial",
        "inscription": "En esta calle mataron al secretario de don Juan de Austria, Juan Escobedo, el 31 de marzo de 1578, noche del lunes de Pascua",
        "memorial": "plaque",
        "name": "Juan Escobedo",
        "source": "Ayuntamiento de Madrid"
      },
      "geometry": {
        "type": "Point",
        "coordinates": [
          -3.713041,
          40.4152179
        ]
      },
      "id": "node/4660686396"
    },
    {
      "type": "Feature",
      "properties": {
        "@id": "node/4660703398",
        "historic": "memorial",
        "inscription": "En este palacio de los duques de Uceda, vivió la reina viuda doña Mariana de Austria y en él murió el 16 de mayo de 1696",
        "memorial": "plaque",
        "name": "Mariana de Austria",
        "source": "Ayuntamiento de Madrid"
      },
      "geometry": {
        "type": "Point",
        "coordinates": [
          -3.7129252,
          40.4149737
        ]
      },
      "id": "node/4660703398"
    },
    {
      "type": "Feature",
      "properties": {
        "@id": "node/4670969655",
        "historic": "memorial",
        "inscription": "En esta casa nació, vivió y murió la escritora Carmen Bravo Villasante, y aquí escribió gran parte de su obra (1918-1994)",
        "memorial": "plaque",
        "name": "Carmen Bravo Villasante",
        "source": "Ayuntamiento de Madrid"
      },
      "geometry": {
        "type": "Point",
        "coordinates": [
          -3.7110481,
          40.4194243
        ]
      },
      "id": "node/4670969655"
    },
    {
      "type": "Feature",
      "properties": {
        "@id": "node/4670998912",
        "historic": "memorial",
        "inscription": "En esta casa sonó de 1928 al 1971 el piano de José Cubiles y aquí transmitió su amor por la música a varias generaciones",
        "memorial": "plaque",
        "name": "José Cubiles",
        "source": "Ayuntamiento de Madrid"
      },
      "geometry": {
        "type": "Point",
        "coordinates": [
          -3.7113071,
          40.4187909
        ]
      },
      "id": "node/4670998912"
    },
    {
      "type": "Feature",
      "properties": {
        "@id": "node/4671064646",
        "historic": "memorial",
        "inscription": "En esta casa vivió en 1918 el poeta chileno Vicente Huidobro, fundador del creacionismo y renovador de la poesía en español",
        "memorial": "plaque",
        "name": "Vicente Huidobro",
        "source": "Ayuntamiento de Madrid"
      },
      "geometry": {
        "type": "Point",
        "coordinates": [
          -3.711185,
          40.4186047
        ]
      },
      "id": "node/4671064646"
    },
    {
      "type": "Feature",
      "properties": {
        "@id": "node/4671064647",
        "historic": "memorial",
        "inscription": "En esta casa vivió el músico Giuseppe Verdi en el año 1863, cuando dirigió en el Teatro Real su ópera \"La forza del destino\"",
        "memorial": "plaque",
        "name": "Giuseppe Verdi",
        "source": "Ayuntamiento de Madrid"
      },
      "geometry": {
        "type": "Point",
        "coordinates": [
          -3.7112192,
          40.4186701
        ]
      },
      "id": "node/4671064647"
    },
    {
      "type": "Feature",
      "properties": {
        "@id": "node/4671116174",
        "historic": "memorial",
        "inscription": "Junto a este lugar estuvieron la Casa del Tesoro, dónde vivió Diego de Silva Velázquez, desde 1652 hasta su muerte en 1660 y el obrador en que se pintó \"Las meninas\"",
        "memorial": "plaque",
        "name": "Diego de Silva Velázquez",
        "source": "Ayuntamiento de Madrid"
      },
      "geometry": {
        "type": "Point",
        "coordinates": [
          -3.7114004,
          40.4177633
        ]
      },
      "id": "node/4671116174"
    },
    {
      "type": "Feature",
      "properties": {
        "@id": "node/4671116175",
        "historic": "memorial",
        "inscription": "En este lugar siendo la casa del Tesoro vivió y murió en 1670, Sebastián Herrera Barnuevo, arquitecto y pintor del rey Felipe IV",
        "memorial": "plaque",
        "name": "Sebastián Herrera Barnuevo",
        "source": "Ayuntamiento de Madrid"
      },
      "geometry": {
        "type": "Point",
        "coordinates": [
          -3.7112968,
          40.4178696
        ]
      },
      "id": "node/4671116175"
    },
    {
      "type": "Feature",
      "properties": {
        "@id": "node/4671182807",
        "historic": "memorial",
        "inscription": "En torno a este lugar estuvo la casa de Montora donde nació en 1737 José del Castillo, pintor del paisaje madrileño",
        "memorial": "plaque",
        "name": "José del Castillo",
        "source": "Ayuntamiento de Madrid"
      },
      "geometry": {
        "type": "Point",
        "coordinates": [
          -3.7117021,
          40.4171788
        ]
      },
      "id": "node/4671182807"
    },
    {
      "type": "Feature",
      "properties": {
        "@id": "node/4671182808",
        "historic": "memorial",
        "inscription": "En torno a este lugar estuvo la casa de las Matemáticas, donde vivió ente 1614 y 1648 Juan Gómez de Mora, arquitecto real y maestro mayor de la Villa de Madrid",
        "memorial": "plaque",
        "name": "Juan Gómez de Mora",
        "source": "Ayuntamiento de Madrid"
      },
      "geometry": {
        "type": "Point",
        "coordinates": [
          -3.7116826,
          40.4175149
        ]
      },
      "id": "node/4671182808"
    },
    {
      "type": "Feature",
      "properties": {
        "@id": "node/4671182809",
        "historic": "memorial",
        "inscription": "En torno a este lugar estuvo la Casa del Tesoro, donde vivió y murió en 1784 Juan Bautista Sachetti principal arquitecto del Palacio Real de Madrid",
        "memorial": "plaque",
        "name": "Juan Bautista Sachetti",
        "source": "Ayuntamiento de Madrid"
      },
      "geometry": {
        "type": "Point",
        "coordinates": [
          -3.7115215,
          40.4176792
        ]
      },
      "id": "node/4671182809"
    },
    {
      "type": "Feature",
      "properties": {
        "@id": "node/4671196909",
        "historic": "memorial",
        "inscription": "En este lugar estuvieron las casas de los Guzmanes en las que vivió el Conde Duque de Olivares, valido del rey Felipe IV (1587-1645)",
        "memorial": "plaque",
        "name": "Conde Duque de Olivares",
        "source": "Ayuntamiento de Madrid"
      },
      "geometry": {
        "type": "Point",
        "coordinates": [
          -3.7118037,
          40.4165708
        ]
      },
      "id": "node/4671196909"
    },
    {
      "type": "Feature",
      "properties": {
        "@id": "node/4671199437",
        "historic": "memorial",
        "inscription": "En torno a este lugar estuvo la iglesia de San Juan donde fue enterrado en 1736 el abate Filipo Juvarra, autor del primer proyecto del Palacio Real de Madrid",
        "memorial": "plaque",
        "name": "Filippo Juvarra",
        "source": "Ayuntamiento de Madrid"
      },
      "geometry": {
        "type": "Point",
        "coordinates": [
          -3.7112988,
          40.4169855
        ]
      },
      "id": "node/4671199437"
    },
    {
      "type": "Feature",
      "properties": {
        "@id": "node/4671277319",
        "Website": "http://especiales.memoriademadrid.es/index/verficha/idpk/58081/id/8/obj/A/idag/25",
        "historic": "memorial",
        "inscription": "En esta parroquia de San Nicolas fue bautizado en 1533 ALONSO DE ERCILLA escritor de poema épico La Araucana.",
        "memorial": "plaque",
        "name": "Alonso de Ercilla",
        "source": "Ayuntamiento de Madrid"
      },
      "geometry": {
        "type": "Point",
        "coordinates": [
          -3.7117688,
          40.4159284
        ]
      },
      "id": "node/4671277319"
    },
    {
      "type": "Feature",
      "properties": {
        "@id": "node/4671299602",
        "historic": "memorial",
        "inscription": "En la cripta de esta parroquia, fue enterrado en 1597 Juan de Herrera arquitecto de Felipe II y artífice del Monasterio del Escorial",
        "memorial": "plaque",
        "name": "Juan de Herrera",
        "source": "Ayuntamiento de Madrid"
      },
      "geometry": {
        "type": "Point",
        "coordinates": [
          -3.7118776,
          40.4158035
        ]
      },
      "id": "node/4671299602"
    },
    {
      "type": "Feature",
      "properties": {
        "@id": "node/4671411213",
        "historic": "memorial",
        "inscription": "Aquí vivió Pedro Rodríguez Campomanes (1723 - 1802), murió Ramón María de Narváez (1800-1868) y nació Álvaro de Figueroa y Torres, Conde de Romanones (1864-1950)",
        "memorial": "plaque",
        "name": "Casa de Cisneros",
        "source": "Ayuntamiento de Madrid"
      },
      "geometry": {
        "type": "Point",
        "coordinates": [
          -3.710586,
          40.4144144
        ]
      },
      "id": "node/4671411213"
    },
    {
      "type": "Feature",
      "properties": {
        "@id": "node/4671420376",
        "historic": "memorial",
        "inscription": "En este lugar estuvieron las casas del Cordón, donde el secretario de Felipe II, Antonio Pérez, vivió desde 1575 y sufrió cautiverio hasta su fuga en 1585",
        "memorial": "plaque",
        "name": "Antonio Pérez",
        "source": "Ayuntamiento de Madrid"
      },
      "geometry": {
        "type": "Point",
        "coordinates": [
          -3.7101269,
          40.4142662
        ]
      },
      "id": "node/4671420376"
    },
    {
      "type": "Feature",
      "properties": {
        "@id": "node/4671457273",
        "historic": "memorial",
        "inscription": "Junto a este lugar se emplazó hasta 1569 la Puerta Cerrada, uno de los principales accesos de la muralla medieval de la villa",
        "memorial": "plaque",
        "name": "Puerta Cerrada",
        "source": "Ayuntamiento de Madrid"
      },
      "geometry": {
        "type": "Point",
        "coordinates": [
          -3.7084063,
          40.4138524
        ]
      },
      "id": "node/4671457273"
    },
    {
      "type": "Feature",
      "properties": {
        "@id": "node/4671470491",
        "historic": "memorial",
        "inscription": "En este lugar estuvo el Colegio Imperial y otros centros de enseñanza donde desde el siglo XVI estuvieron grandes figuras e ingenios españoles",
        "memorial": "plaque",
        "name": "Colegio Imperial",
        "source": "Ayuntamiento de Madrid"
      },
      "geometry": {
        "type": "Point",
        "coordinates": [
          -3.7073883,
          40.4127068
        ]
      },
      "id": "node/4671470491"
    },
    {
      "type": "Feature",
      "properties": {
        "@id": "node/4684277019",
        "artwork_type": "statue",
        "historic": "memorial",
        "memorial": "statue",
        "name": "Juan Domingo Perón",
        "tourism": "artwork"
      },
      "geometry": {
        "type": "Point",
        "coordinates": [
          -3.6952906,
          40.4525785
        ]
      },
      "id": "node/4684277019"
    },
    {
      "type": "Feature",
      "properties": {
        "@id": "node/4723840044",
        "historic": "memorial",
        "inscription": "En esta casa vivió el último año de su vida, el dramaturgo Alejandro Casona (1903-1965) autor de La Dama del Alba y el Caballero de las espuelas de oro",
        "memorial": "plaque",
        "name": "Alejandro Casona",
        "source": "Ayuntamiento de Madrid"
      },
      "geometry": {
        "type": "Point",
        "coordinates": [
          -3.6904853,
          40.4130403
        ]
      },
      "id": "node/4723840044"
    },
    {
      "type": "Feature",
      "properties": {
        "@id": "node/4723848916",
        "historic": "memorial",
        "inscription": "En esta casa vivió sus años de estudiante, el ingeniero de caminos y político madrileño Leopoldo Calvo Sotelo Bustelo (1926-2008) presidente del Gobierno y en la transición diputado de UCD por Madrid, y marqués de la Ría de Ribadeo",
        "memorial": "plaque",
        "name": "Leopoldo Calvo Sotelo",
        "source": "Ayuntamiento de Madrid"
      },
      "geometry": {
        "type": "Point",
        "coordinates": [
          -3.6902263,
          40.4132579
        ]
      },
      "id": "node/4723848916"
    },
    {
      "type": "Feature",
      "properties": {
        "@id": "node/4723854552",
        "historic": "memorial",
        "inscription": "En esta casa vivió desde 1926 hasta su muerte en 1932 la escritora Carmen de Burgos \"Colombine\", quien dedico su obra a la modernización de España a conquistar la igualdad social de la mujer",
        "memorial": "plaque",
        "name": "Carmen de Burgos",
        "source": "Ayuntamiento de Madrid"
      },
      "geometry": {
        "type": "Point",
        "coordinates": [
          -3.7005141,
          40.4294436
        ]
      },
      "id": "node/4723854552"
    },
    {
      "type": "Feature",
      "properties": {
        "@id": "node/4723854553",
        "historic": "memorial",
        "inscription": "En este lugar vivió hasta su muerte el compositor aragonés José de Nebra (1702-1768) primera figura de la lírica en el Barroco español",
        "memorial": "plaque",
        "name": "José de Nebra",
        "source": "Ayuntamiento de Madrid"
      },
      "geometry": {
        "type": "Point",
        "coordinates": [
          -3.7020218,
          40.4142191
        ]
      },
      "id": "node/4723854553"
    },
    {
      "type": "Feature",
      "properties": {
        "@id": "node/4728208533",
        "historic": "memorial",
        "memorial": "bust",
        "name": "Jacinto Verdaguer"
      },
      "geometry": {
        "type": "Point",
        "coordinates": [
          -3.6815468,
          40.4170777
        ]
      },
      "id": "node/4728208533"
    },
    {
      "type": "Feature",
      "properties": {
        "@id": "node/4728973348",
        "historic": "memorial",
        "memorial": "bust",
        "name": "Doctor Benavente"
      },
      "geometry": {
        "type": "Point",
        "coordinates": [
          -3.6868723,
          40.4157451
        ]
      },
      "id": "node/4728973348"
    },
    {
      "type": "Feature",
      "properties": {
        "@id": "node/4729073527",
        "historic": "memorial",
        "name": "D. Juan Van Halen y Sarti"
      },
      "geometry": {
        "type": "Point",
        "coordinates": [
          -3.6834093,
          40.4189004
        ]
      },
      "id": "node/4729073527"
    },
    {
      "type": "Feature",
      "properties": {
        "@id": "node/4729741603",
        "historic": "memorial",
        "inscription": "Aquí vivió la familia Halffter, en la que destacaron los compositores madrileños Rodolfo Halffter (1900-1987) y Ernesto Halffter (1905-1989)",
        "memorial:type": "plaque",
        "name": "Hermanos Halffter"
      },
      "geometry": {
        "type": "Point",
        "coordinates": [
          -3.7022607,
          40.4145928
        ]
      },
      "id": "node/4729741603"
    },
    {
      "type": "Feature",
      "properties": {
        "@id": "node/4729741604",
        "historic": "memorial",
        "inscription": "En esta plaza estuvo el Monasterio de Santa Ana fundado por San Juan de la Cruz en 1586 y derribado en 1810",
        "memorial:type": "plaque",
        "name": "San Juan de la Cruz"
      },
      "geometry": {
        "type": "Point",
        "coordinates": [
          -3.7011094,
          40.4143795
        ]
      },
      "id": "node/4729741604"
    },
    {
      "type": "Feature",
      "properties": {
        "@id": "node/4729780544",
        "historic": "memorial",
        "inscription": "En este lugar estuvo la fonda de La Cruz donde Giacomo Casanova se alojó entre 1767 y 1768",
        "memorial:type": "plaque",
        "name": "Giacomo Casanova"
      },
      "geometry": {
        "type": "Point",
        "coordinates": [
          -3.702275,
          40.4149383
        ]
      },
      "id": "node/4729780544"
    },
    {
      "type": "Feature",
      "properties": {
        "@id": "node/4729784320",
        "historic": "memorial",
        "inscription": "En este Callejón del Gato los personajes de Ramón del Valle Inclán trataron de los espejos cóncavos y de formadores del esperpento. Luces de Bohemia XII 1924",
        "memorial:type": "plaque",
        "name": "Ramón del Valle Inclán"
      },
      "geometry": {
        "type": "Point",
        "coordinates": [
          -3.7021781,
          40.4151683
        ]
      },
      "id": "node/4729784320"
    },
    {
      "type": "Feature",
      "properties": {
        "@id": "node/4729795273",
        "historic": "memorial",
        "inscription": "Junto a este lugar se emplazó hasta mediados del siglo XVII la puerta de Moros, entrada de la muralla medieval de la Villa",
        "memorial:type": "plaque",
        "name": "Puerta de Moros"
      },
      "geometry": {
        "type": "Point",
        "coordinates": [
          -3.7106943,
          40.4119637
        ]
      },
      "id": "node/4729795273"
    },
    {
      "type": "Feature",
      "properties": {
        "@id": "node/4729799643",
        "historic": "memorial",
        "inscription": "Es fama que en este lugar construyó San Francisco de Asís una choza y una ermita en 1217",
        "memorial:type": "plaque",
        "name": "San Francisco de Asís"
      },
      "geometry": {
        "type": "Point",
        "coordinates": [
          -3.7144952,
          40.410876
        ]
      },
      "id": "node/4729799643"
    },
    {
      "type": "Feature",
      "properties": {
        "@id": "node/4738032953",
        "historic": "memorial",
        "inscription": "Aquí vivió el banquero José Salamanca y Mayol, constructor del barrio que lleva su nombre (1811-1883)",
        "memorial": "plaque",
        "name": "José Salamanca y Mayol",
        "source": "Ayuntamiento de Madrid"
      },
      "geometry": {
        "type": "Point",
        "coordinates": [
          -3.6913939,
          40.4218325
        ]
      },
      "id": "node/4738032953"
    },
    {
      "type": "Feature",
      "properties": {
        "@id": "node/4738033681",
        "historic": "memorial",
        "inscription": "Aquí nació y vivió Gregorio Marañón, médico y humanista (1887-1960)",
        "memorial": "plaque",
        "name": "Gregorio Marañón",
        "source": "Ayuntamiento de Madrid"
      },
      "geometry": {
        "type": "Point",
        "coordinates": [
          -3.6909777,
          40.4207846
        ]
      },
      "id": "node/4738033681"
    },
    {
      "type": "Feature",
      "properties": {
        "@id": "node/4738044722",
        "historic": "memorial",
        "inscription": "En esta casa nació el 30 de diciembre de 1895 el escritor José Bergamín, poeta de una España peregrina",
        "memorial": "plaque",
        "name": "José Bergamín",
        "source": "Ayuntamiento de Madrid"
      },
      "geometry": {
        "type": "Point",
        "coordinates": [
          -3.6890326,
          40.4193119
        ]
      },
      "id": "node/4738044722"
    },
    {
      "type": "Feature",
      "properties": {
        "@id": "node/4738044723",
        "historic": "memorial",
        "inscription": "En este lugar estuvo de 1664 a 1863 el Real Pósito de la Villa de Madrid, que integró varios edificios destinados al abastecimiento de la ciudad",
        "memorial": "plaque",
        "name": "Real Pósito de la Villa de Madrid",
        "source": "Ayuntamiento de Madrid"
      },
      "geometry": {
        "type": "Point",
        "coordinates": [
          -3.6896124,
          40.4202143
        ]
      },
      "id": "node/4738044723"
    },
    {
      "type": "Feature",
      "properties": {
        "@id": "node/4738044724",
        "historic": "memorial",
        "inscription": "En esta casa se fundó en 1963, Cuadernos para el Diálogo, dirigida por Joaquín Ruiz-Gimenez",
        "memorial": "plaque",
        "name": "Cuadernos para el Diálogo",
        "source": "Ayuntamiento de Madrid"
      },
      "geometry": {
        "type": "Point",
        "coordinates": [
          -3.6904264,
          40.4207374
        ]
      },
      "id": "node/4738044724"
    },
    {
      "type": "Feature",
      "properties": {
        "@id": "node/4748840284",
        "historic": "memorial",
        "inscription": "AQUÍ VIVIO Y MURIO / EL INSIGNE MÚSICO SALMANTINO / D. TOMÁS BRETON / GLORIA DEL ARTE LIRICO ESPAÑOL / EL AYUNTAMIENTO DE MADRID / DONACIÓN DE LA CASA CHARRA / IX  II  MCMXXXVI",
        "memorial": "plaque",
        "name": "Tomás Bretón",
        "source": "Ayuntamiento de Madrid"
      },
      "geometry": {
        "type": "Point",
        "coordinates": [
          -3.709131,
          40.4192901
        ]
      },
      "id": "node/4748840284"
    },
    {
      "type": "Feature",
      "properties": {
        "@id": "node/4748857060",
        "historic": "memorial",
        "inscription": "JAIME BALMES / FUNDO EN ESTA CASA/ EL PENSAMIENTO DE LA NACIÓN / AÑO DE 1844 / La Asociacion de la Prensa de Madrid  / CONMEMORA / EN / 1944",
        "memorial": "plaque",
        "name": "Jaime Balmes",
        "source": "Ayuntamiento de Madrid"
      },
      "geometry": {
        "type": "Point",
        "coordinates": [
          -3.7097052,
          40.4209817
        ]
      },
      "id": "node/4748857060"
    },
    {
      "type": "Feature",
      "properties": {
        "@id": "node/4749136643",
        "historic": "memorial",
        "inscription": "AQUÍ VIVIÓ Y MURIÓ / Dn. PEDRO CALDERON DE LA BARCA",
        "memorial": "plaque",
        "name": "Pedro Calderón de la Barca",
        "source": "Ayuntamiento de Madrid"
      },
      "geometry": {
        "type": "Point",
        "coordinates": [
          -3.7098752,
          40.4155912
        ]
      },
      "id": "node/4749136643"
    },
    {
      "type": "Feature",
      "properties": {
        "@id": "node/4749165614",
        "historic": "memorial",
        "inscription": "EN ESTA CASA VIVIO Y MURIO / EL ILUSTRE SABIO EN / RAYOS COSMICOS / D. ARTURO DUPERIER / VALLESA / LA COMUNIDAD DE / PROPIETARIOS / MCMLIX",
        "memorial": "plaque",
        "name": "Arturo Duperier Vallesa",
        "source": "Ayuntamiento de Madrid"
      },
      "geometry": {
        "type": "Point",
        "coordinates": [
          -3.6484205,
          40.4388286
        ]
      },
      "id": "node/4749165614"
    },
    {
      "type": "Feature",
      "properties": {
        "@id": "node/4749177170",
        "historic": "memorial",
        "inscription": "A LA MEMORIA DEL ESCRITOR / AGUSTÍN DE FOXÁ / QUE VIVIÓ Y MURIÓ / EN ESTA CASA / 1906-1959 / LA SOCIEDAD GENERAL / DE / AUTORES DE ESPAÑA / MCMLXIV",
        "memorial": "plaque",
        "name": "Agustín de Foxá",
        "source": "Ayuntamiento de Madrid"
      },
      "geometry": {
        "type": "Point",
        "coordinates": [
          -3.6785616,
          40.4185393
        ]
      },
      "id": "node/4749177170"
    },
    {
      "type": "Feature",
      "properties": {
        "@id": "node/4749196991",
        "historic": "memorial",
        "inscription": "EN ESTA CASA / VIVIO Y MVRIO / ALBERTO AGUILERA / (1840-1939) / EL AYUNTAMIENTO / Y / EL PVEBLO DE MADRID / DEDICAN ESTE HOMENAJE / AL QUE FVERA SV / ALCALDE / EN EL LXXV ANIVERSARIO / DE SV MVERTE / 20-DICIEMBRE-1988",
        "memorial": "plaque",
        "name": "Alberto Aguilera",
        "source": "Ayuntamiento de Madrid"
      },
      "geometry": {
        "type": "Point",
        "coordinates": [
          -3.702807,
          40.4123734
        ]
      },
      "id": "node/4749196991"
    },
    {
      "type": "Feature",
      "properties": {
        "@id": "node/4749205339",
        "historic": "memorial",
        "inscription": "EN ESTA CASA VIVIÓ / ALEJANDRO BUSUIOCEANU / POETA RUMANO DE LENGUA / ESPAÑOLA. 1945.-1961. / HOMENAJE DEL INSTITUTO DE CULTURA HISPANICA / Y DE SUS DISCIPULOS",
        "memorial": "plaque",
        "name": "Alejandro Busuioceanu",
        "source": "Ayuntamiento de Madrid"
      },
      "geometry": {
        "type": "Point",
        "coordinates": [
          -3.678415,
          40.4265327
        ]
      },
      "id": "node/4749205339"
    },
    {
      "type": "Feature",
      "properties": {
        "@id": "node/4749209318",
        "historic": "memorial",
        "inscription": "GALICIA E A MELLOR ESQUINA / DO SOLAR HISPANICO CABO / DO MONDO ANTIGO E / AVANZADA DE EUROPA / NO MAR INMENSO / DA LIBERDADE / SEMPRE EN GALIZA / (ALFONSO R. CASTELAO) / PARQUE DE BREOGAN / 23 MAYO 1982",
        "memorial": "stone",
        "name": "Alfonso R. Castelao",
        "source": "Ayuntamiento de Madrid"
      },
      "geometry": {
        "type": "Point",
        "coordinates": [
          -3.6607387,
          40.4354692
        ]
      },
      "id": "node/4749209318"
    },
    {
      "type": "Feature",
      "properties": {
        "@id": "node/4749210360",
        "historic": "memorial",
        "inscription": "A LA MEMORIA DE / ALVARO IGLESIAS SANCHEZ / POR SU ACTO HEROICO / EN EL INCENDIO / DE LA CALLE CARRANZA Nº 7 / MADRID 6 - 4 - 1982",
        "memorial": "plaque",
        "name": "Álvaro Iglesias Sánchez",
        "source": "Ayuntamiento de Madrid"
      },
      "geometry": {
        "type": "Point",
        "coordinates": [
          -3.7031053,
          40.4289958
        ]
      },
      "id": "node/4749210360"
    },
    {
      "type": "Feature",
      "properties": {
        "@id": "node/4749228387",
        "historic": "memorial",
        "inscription": "AQUI VIVIO / EN UN REPOSO DE SU CANTAR / Y CORRER POR LOS MUNDOS / EL GRAN POETA / AMADO NERVO / MADRID QUE FUE EN SU VIDA / POSADA Y ESTIMULO / LE DEDICA ESTE RECUERDO / EN HOMENAJE A SU GLORIA",
        "memorial": "plaque",
        "name": "Amado Nervo",
        "source": "Ayuntamiento de Madrid"
      },
      "geometry": {
        "type": "Point",
        "coordinates": [
          -3.7127512,
          40.4199066
        ]
      },
      "id": "node/4749228387"
    },
    {
      "type": "Feature",
      "properties": {
        "@id": "node/4749288985",
        "artist_name": "Antonio Mingote",
        "historic": "memorial",
        "inscription": "EL AYUNTAMIENTO DE / MADRID / AGRADECIDO POR LOS / SERCICIOS A LA CIUDAD / Antigua pastelería / del Pozo / DESDE 1830",
        "memorial": "plaque",
        "name": "Antigua pasteleria del Pozo",
        "source": "Ayto. Madrid"
      },
      "geometry": {
        "type": "Point",
        "coordinates": [
          -3.7011705,
          40.416256
        ]
      },
      "id": "node/4749288985"
    },
    {
      "type": "Feature",
      "properties": {
        "@id": "node/4749310765",
        "artist_name": "VICENT CORTINA, Salvador Octavio (ESC)",
        "historic": "memorial",
        "inscription": "A / D. ANTONIO LLEO DE LA VIÑA / DOCTOR INGENIERO DE CAMINOS / 14 DE ENERO DE 1981 / CREADOR Y REALIZADOR DE ESTE PARQUE // ZOOS IBERICOS CONCESIONARIA DEL / EXMO AYUNTAMIENTO DE MADRID / LE DEDICA ESTE HOMENAJE",
        "memorial": "stone",
        "name": "Antonio Lleó de la Viña",
        "source": "Ayto. Madrid",
        "start_date": "1981"
      },
      "geometry": {
        "type": "Point",
        "coordinates": [
          -3.761697,
          40.4102231
        ]
      },
      "id": "node/4749310765"
    },
    {
      "type": "Feature",
      "properties": {
        "@id": "node/4749316918",
        "artist_name": "Carlos Mingo López",
        "historic": "memorial",
        "inscription": "A / D. ANTONIO MAURA / EL / AYUNTAMIENTO DE MADRID / 1853  1925",
        "memorial": "plaque",
        "name": "Antonio Maura",
        "source": "Ayto. Madrid",
        "start_date": "1928"
      },
      "geometry": {
        "type": "Point",
        "coordinates": [
          -3.6897583,
          40.4163903
        ]
      },
      "id": "node/4749316918"
    },
    {
      "type": "Feature",
      "properties": {
        "@id": "node/4749321060",
        "artist_name": "Carlos Monteverde",
        "historic": "memorial",
        "inscription": "LA SOCIEDAD GENERAL DE AUTORES DE ESPAÑA / A ANTONIO MACHADO / QUE VIVIO EN ESTA CASA / \"TU PROFECIA, POETA. / MAÑANA HABLARAN LOS MUDOS: / EL CORAZON Y LA PIEDRA / SE INAUGURO ESTA PLACA EL 15 DE OCTUBRE DE 1985",
        "memorial": "plaque",
        "name": "Antonio Machado",
        "source": "Ayto. Madrid",
        "start_date": "1985"
      },
      "geometry": {
        "type": "Point",
        "coordinates": [
          -3.6968139,
          40.4316316
        ]
      },
      "id": "node/4749321060"
    },
    {
      "type": "Feature",
      "properties": {
        "@id": "node/4749332921",
        "historic": "memorial",
        "inscription": "A D. ANTONIO MINGOTE POR / ENSEÑARNOS CON HUMOR Y / AMOR LA VIDA. /EL PUEBLO DE MADRID / MADRID 22 DE DICIEMBRE 1993",
        "memorial": "plaque",
        "name": "Antonio Mingote",
        "source": "Ayto. Madrid",
        "start_date": "1993"
      },
      "geometry": {
        "type": "Point",
        "coordinates": [
          -3.711903,
          40.425315
        ]
      },
      "id": "node/4749332921"
    },
    {
      "type": "Feature",
      "properties": {
        "@id": "node/4749349721",
        "historic": "memorial",
        "inscription": "A DON ANTONIO PASO CANO / 18681958 /QUE MURIO EN ESTA CASA / LA / SOCIEDAD GENERAL DE AUTORES DE ESPAÑA / MCMLXVIII",
        "memorial": "plaque",
        "name": "Antonio Paso Cano",
        "source": "Ayto. Madrid",
        "start_date": "1968"
      },
      "geometry": {
        "type": "Point",
        "coordinates": [
          -3.700316,
          40.4273894
        ]
      },
      "id": "node/4749349721"
    },
    {
      "type": "Feature",
      "properties": {
        "@id": "node/4749365100",
        "artist_name": "MARINAS Y GARCÍA, Aniceto",
        "historic": "memorial",
        "inscription": "A D. ARMANDO PALACIO VALDES / LA ASOCIACIÓN DE ESCRITORES / Y ARTISTAS ESPAÑOLES. / * 4 OCTUBRE 1853.  28 ENERO 1938",
        "memorial": "plaque",
        "name": "Armando Palacio Valdés",
        "source": "Ayto. Madrid",
        "start_date": "1941"
      },
      "geometry": {
        "type": "Point",
        "coordinates": [
          -3.682218,
          40.4339177
        ]
      },
      "id": "node/4749365100"
    },
    {
      "type": "Feature",
      "properties": {
        "@id": "node/4749365101",
        "artist_name": "RODRÍGUEZ BONOME, Santiago",
        "historic": "memorial",
        "inscription": "ESTA LAPIDA FUE ESCULPIDA GRATUITAMENTE POR BONOME Y SUS MATERIALES FUERON COSTEADOS POR SUSCRIPCIÓN POPULAR EN 1927",
        "memorial": "plaque",
        "name": "Antonio Zozaya",
        "source": "Ayto. Madrid",
        "start_date": "1927"
      },
      "geometry": {
        "type": "Point",
        "coordinates": [
          -3.7078159,
          40.4096683
        ]
      },
      "id": "node/4749365101"
    },
    {
      "type": "Feature",
      "properties": {
        "@id": "node/4753436805",
        "historic": "memorial",
        "inscription": "Aquí se halló la iglesia del monasterio de Santo Domingo donde Pedro I de Castilla y León fue enterrado por deseo de su nieta doña Constanza",
        "memorial": "plaque",
        "name": "Pedro I de Castilla y León",
        "source": "Ayuntamiento de Madrid"
      },
      "geometry": {
        "type": "Point",
        "coordinates": [
          -3.709466,
          40.4195593
        ]
      },
      "id": "node/4753436805"
    },
    {
      "type": "Feature",
      "properties": {
        "@id": "node/4753441194",
        "historic": "memorial",
        "inscription": "En este lugar estuvo situado el edificio de las reales caballerizas, obra de Francisco Sabatini (1772 - 1797) arquitecto del rey Carlos III",
        "memorial": "plaque",
        "name": "Francisco Sabatini",
        "source": "Ayuntamiento de Madrid"
      },
      "geometry": {
        "type": "Point",
        "coordinates": [
          -3.713205,
          40.4199257
        ]
      },
      "id": "node/4753441194"
    },
    {
      "type": "Feature",
      "properties": {
        "@id": "node/4753444439",
        "historic": "memorial",
        "inscription": "Aquí vivió desde chiquillo Paco de Lucía (1947 - 2014) genio entre los genios de la música y gran revolucionario del flamenco",
        "memorial": "plaque",
        "name": "Paco de Lucía",
        "source": "Ayuntamiento de Madrid"
      },
      "geometry": {
        "type": "Point",
        "coordinates": [
          -3.7174694,
          40.421139
        ]
      },
      "id": "node/4753444439"
    },
    {
      "type": "Feature",
      "properties": {
        "@id": "node/4753455253",
        "historic": "memorial",
        "inscription": "En esta casa vivió sus años de juventud el escritor, actor y director de cine y teatro Fernando Fernán Gómez, (1921 - 2007) primer actor miembro de la Real Academia Española",
        "memorial": "plaque",
        "name": "Fernando Fernán Gómez",
        "source": "Ayuntamiento de Madrid"
      },
      "geometry": {
        "type": "Point",
        "coordinates": [
          -3.7021459,
          40.4357577
        ]
      },
      "id": "node/4753455253"
    },
    {
      "type": "Feature",
      "properties": {
        "@id": "node/4753465156",
        "historic": "memorial",
        "inscription": "Este monasterio de la orden de la Merced, fue fundado por doña María de Miranda el 11 de enero de 1606, con la ayuda de su confesor don Juan Pacheco de Alarcón",
        "memorial": "plaque",
        "name": "María de Miranda",
        "source": "Ayuntamiento de Madrid"
      },
      "geometry": {
        "type": "Point",
        "coordinates": [
          -3.7019763,
          40.4217757
        ]
      },
      "id": "node/4753465156"
    },
    {
      "type": "Feature",
      "properties": {
        "@id": "node/4757639743",
        "historic": "memorial",
        "inscription": "En esta casa vivió en 1777 Francisco de Goya y en ella nació su hijo Vicente Anastasio",
        "memorial": "plaque",
        "name": "Francisco de Goya",
        "source": "Ayuntamiento de Madrid"
      },
      "geometry": {
        "type": "Point",
        "coordinates": [
          -3.7098766,
          40.4163281
        ]
      },
      "id": "node/4757639743"
    },
    {
      "type": "Feature",
      "properties": {
        "@id": "node/4757640407",
        "historic": "memorial",
        "inscription": "En este lugar estuvo la casa donde la Beata Mariana de Jesús nació en 1564",
        "memorial": "plaque",
        "name": "Beata Mariana de Jesús",
        "source": "Ayuntamiento de Madrid"
      },
      "geometry": {
        "type": "Point",
        "coordinates": [
          -3.7096168,
          40.4162339
        ]
      },
      "id": "node/4757640407"
    },
    {
      "type": "Feature",
      "properties": {
        "@id": "node/4757653921",
        "historic": "memorial",
        "inscription": "Aquí estuvo la casa del historiador Francisco Martínez Marina (1754-1833), autor de la teoría de las Cortes",
        "memorial": "plaque",
        "name": "Francisco Martínez Marina",
        "source": "Ayuntamiento de Madrid"
      },
      "geometry": {
        "type": "Point",
        "coordinates": [
          -3.7095047,
          40.4162362
        ]
      },
      "id": "node/4757653921"
    },
    {
      "type": "Feature",
      "properties": {
        "@id": "node/4757658822",
        "historic": "memorial",
        "inscription": "Aquí estuvieron las casas de los Álvarez de Toledo, donde residieron los monarcas Trastámara y el condestable Álvaro de Luna",
        "memorial": "plaque",
        "name": "Álvarez de Toledo",
        "source": "Ayuntamiento de Madrid"
      },
      "geometry": {
        "type": "Point",
        "coordinates": [
          -3.7107551,
          40.4169272
        ]
      },
      "id": "node/4757658822"
    },
    {
      "type": "Feature",
      "properties": {
        "@id": "node/4757663221",
        "historic": "memorial",
        "inscription": "Frente a este lugar estuvo el teatro de la ópera de Los Caños del Peral de 1737 a 1817",
        "memorial": "plaque",
        "name": "Los Caños del Peral",
        "source": "Ayuntamiento de Madrid"
      },
      "geometry": {
        "type": "Point",
        "coordinates": [
          -3.7089562,
          40.4183072
        ]
      },
      "id": "node/4757663221"
    },
    {
      "type": "Feature",
      "properties": {
        "@id": "node/4760032808",
        "historic": "memorial",
        "memorial": "sculpture",
        "name": "Doctor Cortezo"
      },
      "geometry": {
        "type": "Point",
        "coordinates": [
          -3.6801022,
          40.4139482
        ]
      },
      "id": "node/4760032808"
    },
    {
      "type": "Feature",
      "properties": {
        "@id": "node/4760037952",
        "historic": "memorial",
        "name": "Campoamor"
      },
      "geometry": {
        "type": "Point",
        "coordinates": [
          -3.6796489,
          40.4129383
        ]
      },
      "id": "node/4760037952"
    },
    {
      "type": "Feature",
      "properties": {
        "@id": "node/4769711721",
        "historic": "memorial",
        "memorial": "bust",
        "name": "Andrés Eloy Blanco "
      },
      "geometry": {
        "type": "Point",
        "coordinates": [
          -3.6827683,
          40.415634
        ]
      },
      "id": "node/4769711721"
    },
    {
      "type": "Feature",
      "properties": {
        "@id": "node/4827673937",
        "historic": "memorial",
        "memorial": "plaque",
        "name": "Gaspar Melchor de Jovellanos"
      },
      "geometry": {
        "type": "Point",
        "coordinates": [
          -3.7090399,
          40.4244255
        ]
      },
      "id": "node/4827673937"
    },
    {
      "type": "Feature",
      "properties": {
        "@id": "node/4846274985",
        "historic": "memorial",
        "memorial": "statue",
        "name": "Simón Bolivar"
      },
      "geometry": {
        "type": "Point",
        "coordinates": [
          -3.7277998,
          40.4321634
        ]
      },
      "id": "node/4846274985"
    },
    {
      "type": "Feature",
      "properties": {
        "@id": "node/4861612283",
        "historic": "memorial",
        "inscription": "Aquí nació y vivió Juan Muñoz (1953-2001) escultor del espacio y de la figura humana",
        "memorial": "plaque",
        "name": "Juan Muñoz"
      },
      "geometry": {
        "type": "Point",
        "coordinates": [
          -3.7160147,
          40.4364544
        ]
      },
      "id": "node/4861612283"
    },
    {
      "type": "Feature",
      "properties": {
        "@id": "node/4861612284",
        "historic": "memorial",
        "inscription": "Aquí nació el 11 de junio de 1928 Fabiola de Mora y Aragón reina de Bélgica",
        "memorial": "plaque",
        "name": "Fabiola de Mora y Aragón"
      },
      "geometry": {
        "type": "Point",
        "coordinates": [
          -3.6938584,
          40.4279014
        ]
      },
      "id": "node/4861612284"
    },
    {
      "type": "Feature",
      "properties": {
        "@id": "node/4861612285",
        "historic": "memorial",
        "inscription": "El ingeniero arquitecto y tracista del Ensanche madrileño Carlos María de Castro construyó este palacete y en el vivió (1810-1893)",
        "memorial": "plaque",
        "name": "Carlos María de Castro"
      },
      "geometry": {
        "type": "Point",
        "coordinates": [
          -3.6930676,
          40.4280786
        ]
      },
      "id": "node/4861612285"
    },
    {
      "type": "Feature",
      "properties": {
        "@id": "node/4861612286",
        "historic": "memorial",
        "inscription": "Aquí se levantaba el Torreón literario donde Ramón Gómez de la Serna instaló su mundo mágico de 1922 a 1936",
        "memorial": "plaque",
        "name": "Ramón Gómez de la Serna"
      },
      "geometry": {
        "type": "Point",
        "coordinates": [
          -3.6841846,
          40.4219236
        ]
      },
      "id": "node/4861612286"
    },
    {
      "type": "Feature",
      "properties": {
        "@id": "node/4861612287",
        "historic": "memorial",
        "inscription": "En esta casa vivió desde 1952 José María Gil Robles y Quiñones (1898-1980) y aquí desarrolló su actividad como abogado, catedrático y político",
        "memorial": "plaque",
        "name": "José María Gil Robles y Quiñones"
      },
      "geometry": {
        "type": "Point",
        "coordinates": [
          -3.6846484,
          40.4214177
        ]
      },
      "id": "node/4861612287"
    },
    {
      "type": "Feature",
      "properties": {
        "@id": "node/4861612288",
        "historic": "memorial",
        "inscription": "Aquí estuvo la casa donde nació el pintor José Gutierrez Solana el 28 de febrero de 1886",
        "memorial": "plaque",
        "name": "José Gutierrez Solana"
      },
      "geometry": {
        "type": "Point",
        "coordinates": [
          -3.6868536,
          40.4218241
        ]
      },
      "id": "node/4861612288"
    },
    {
      "type": "Feature",
      "properties": {
        "@id": "node/4907944782",
        "historic": "memorial",
        "inscription": "Aquí estuvo la casa dónde vivió y murió el capitán general Valeriano Weyler, modelo de lealtad al régimen constitucional (1838-1930)",
        "memorial": "plaque",
        "name": "Valeriano Weyler"
      },
      "geometry": {
        "type": "Point",
        "coordinates": [
          -3.7212623,
          40.4288612
        ]
      },
      "id": "node/4907944782"
    },
    {
      "type": "Feature",
      "properties": {
        "@id": "node/4907944783",
        "historic": "memorial",
        "inscription": "Aquí vivieron María Teresa León y Rafael Alberti desde 1931 a 1936",
        "memorial": "plaque",
        "name": "Rafael Alberti"
      },
      "geometry": {
        "type": "Point",
        "coordinates": [
          -3.7210472,
          40.4289277
        ]
      },
      "id": "node/4907944783"
    },
    {
      "type": "Feature",
      "properties": {
        "@id": "node/4907944784",
        "historic": "memorial",
        "inscription": "Aquí estuvo el cuartel de Monteleon donde luchó el 2 de mayo de 1808 Benita Pastrana, defendiendo el cañón del teniente Ruiz hasta ser herida de muerte",
        "memorial": "plaque",
        "name": "Benita Pastrana"
      },
      "geometry": {
        "type": "Point",
        "coordinates": [
          -3.7036304,
          40.4267584
        ]
      },
      "id": "node/4907944784"
    },
    {
      "type": "Feature",
      "properties": {
        "@id": "node/4907944785",
        "historic": "memorial",
        "inscription": "En torno a este lugar estuvo la casa donde vivió la bordadora Madrileña Manuela Malasaña que el 2 de mayo de 1808 fue fusilada a los 15 años junto al Parque de Artillería de Monteleón",
        "memorial": "plaque",
        "name": "Manuela Malasaña"
      },
      "geometry": {
        "type": "Point",
        "coordinates": [
          -3.7035481,
          40.4272717
        ]
      },
      "id": "node/4907944785"
    },
    {
      "type": "Feature",
      "properties": {
        "@id": "node/4907944786",
        "historic": "memorial",
        "inscription": "En este lugar y su ambiente inspiró al músico Isaac Albéniz (1860 - 1909) la composición Lavapiés de la suite Iberia",
        "memorial": "plaque",
        "name": "Isaac Albéniz"
      },
      "geometry": {
        "type": "Point",
        "coordinates": [
          -3.7016557,
          40.4089379
        ]
      },
      "id": "node/4907944786"
    },
    {
      "type": "Feature",
      "properties": {
        "@id": "node/4907944787",
        "historic": "memorial",
        "inscription": "En esta casa nació el 12 de agosto de 1866 el autor teatral Jacinto Benavente, premio Nobel de Literatura",
        "memorial": "plaque",
        "name": "Jacinto Benavente"
      },
      "geometry": {
        "type": "Point",
        "coordinates": [
          -3.6991697,
          40.4130648
        ]
      },
      "id": "node/4907944787"
    },
    {
      "type": "Feature",
      "properties": {
        "@id": "node/4907944788",
        "historic": "memorial",
        "inscription": "Este paraje fue en la época de los Austrias Mentidero de Representantes, lugar de reunión de las gentes de teatro",
        "memorial": "plaque",
        "name": "Mentidero de Representantes"
      },
      "geometry": {
        "type": "Point",
        "coordinates": [
          -3.6986698,
          40.4142906
        ]
      },
      "id": "node/4907944788"
    },
    {
      "type": "Feature",
      "properties": {
        "@id": "node/4907944789",
        "historic": "memorial",
        "inscription": "En esta casa vivió y murió Luis Bellido y González arquitecto municipal de Madrid (1869-1955)",
        "memorial": "plaque",
        "name": "Luis Bellido y González"
      },
      "geometry": {
        "type": "Point",
        "coordinates": [
          -3.6940387,
          40.4233555
        ]
      },
      "id": "node/4907944789"
    },
    {
      "type": "Feature",
      "properties": {
        "@id": "node/4907944790",
        "historic": "memorial",
        "inscription": "En esta casa se encontraba la editorial \"la lectura\" que publicó en 1914 la primera edición de Platero y yo del Nobel Juan Ramón Jiménez 1881-1958 \"platero es pequeño peludo suave tan blando por fuera que se diría todo de algodón que no lleva huesos\"",
        "memorial": "plaque",
        "name": "Platero y yo"
      },